NAME,TOTALREV,TFEDREV,TSTREV,TLOCREV,tot_rev_per_s,fed_rev_per_s,st_rev_per_s,loc_rev_per_s,ENROLL,TOTALEXP,TCURINST,tot_spend_per_s,tot_inst_per_s,lat,lng,ave_school_enrol,ave_prcnt_wht,ave_prcnt_bk,ave_prcnt_hisp,ave_prcnt_asn,ave_prcnt_othr,free_lunch_eligible,not_eligible,total_count,percent_student_body_eligible_for_frl,majority_minority
Adams Township School District,4927,268,3442,1217,10.87637969,0.591611479,7.598233996,2.686534216,453,4600,2320,10.15452539,5.121412804,47.05523415,-88.65829815,223,98,0.5,0.5,0,1,87,106,228,53.5,No
Addison Community Schools,10189,1130,4035,5024,11.91695906,1.321637427,4.719298246,5.876023392,855,9444,5452,11.04561404,6.376608187,41.9882544,-84.3434131,220.5,88,1,6.5,0.5,4.5,98.5,108.5,223.5,51.5,No
"Adrian, School District of the City of",37526,6400,21662,9464,12.66486669,2.159973,7.310833615,3.194060074,2963,35850,19725,12.09922376,6.657104286,41.89570634,-84.04982226,431.6,58.2,4,29.4,1.2,7.4,257.4,156,445.4,70.4,No
Airport Community Schools,27360,1257,18938,7165,11.07244031,0.508700931,7.664103602,2.899635775,2471,26644,14466,10.78267908,5.854309996,42.04126472,-83.33854654,246.8,91.8,3.2,3.8,0.4,0.6,125.8,122.4,261.8,56.2,No
Akron-Fairgrove Schools,3993,296,1587,2110,14.15957447,1.04964539,5.627659574,7.482269504,282,5427,1777,19.24468085,6.30141844,43.5569764,-83.5299381,143.5,88.5,0.5,7.5,0.5,3,93,38,145.5,74,No
Alba Public Schools,1739,148,738,853,12.78676471,1.088235294,5.426470588,6.272058824,136,1576,841,11.58823529,6.183823529,44.9777259,-84.9700241,129,90,1,2,0,7,83,27,124,78,No
Alcona Community Schools,8100,281,1274,6545,11.06557377,0.383879781,1.740437158,8.941256831,732,7432,4633,10.15300546,6.329234973,44.65731165,-83.4042043,361.5,94,1.5,2,0.5,2,214,112.5,363,69.5,No
Algonac Community School District,19625,912,10106,8607,11.72341697,0.544802867,6.037037037,5.141577061,1674,19107,10558,11.41397849,6.307048984,42.63062513,-82.55720427,539.6666667,97.33333333,0.666666667,1,0,1,194.3333333,275.6666667,504,47.66666667,No
Allegan Public Schools,28843,1369,18436,9038,11.31541781,0.537073362,7.232640251,3.545704198,2549,26788,14852,10.5092193,5.826598666,42.52649179,-85.8567982,363.2857143,87.14285714,2.142857143,6,0.714285714,4.428571429,174.5714286,152,358,61.14285714,No
Allen Park Public Schools,41215,875,31043,9297,10.80907422,0.229478101,8.14135851,2.438237608,3813,39755,24205,10.42617362,6.348019932,42.24552257,-83.2133512,628.1666667,83,2.333333333,12.5,0.5,2,203,403.5,636.6666667,41.66666667,No
Allendale Public Schools,31116,639,19636,10841,11.79977247,0.242320819,7.446340538,4.111111111,2637,28949,15646,10.97800531,5.93325749,42.96316008,-85.9611354,637.5,84,1.5,10,1,3.75,153,466.5,654,29,No
Alma Public Schools,23904,1690,16029,6185,11.20149953,0.791940019,7.511246485,2.898313027,2134,22451,12870,10.52061856,6.030927835,43.38318695,-84.66388405,412.25,83.5,3.5,10.25,1.5,1.5,218.75,166.5,404,60.5,No
Almont Community Schools,16065,380,11245,4440,10.91372283,0.258152174,7.639266304,3.016304348,1472,14012,8598,9.519021739,5.841032609,42.930558,-83.03980835,500,93,0,5.5,0,1.5,115,375,512,26.5,No
Alpena Public Schools,41653,3510,26038,12105,10.57988316,0.891541783,6.613665227,3.074676149,3937,38545,21923,9.790449581,5.568453137,45.05164086,-83.47323887,437.1111111,94.66666667,0.666666667,1.777777778,0.333333333,2.888888889,200.3333333,192.7777778,424.5555556,62.11111111,No
Anchor Bay School District,66663,1191,46949,18523,10.90868925,0.194894453,7.682703322,3.031091474,6111,62089,36089,10.16020291,5.905580101,42.68233361,-82.75771275,504.6363636,89.18181818,3.363636364,2.545454545,1,4.090909091,114.3636364,361.6363636,495,36.81818182,No
Ann Arbor Public Schools,250114,6069,104559,139486,14.51366564,0.352173156,6.067370742,8.094121743,17233,244282,130715,14.17524517,7.585156386,42.2740058,-83.73488591,520.6451613,57.83870968,12.80645161,7.483870968,11.96774194,9.903225806,119.3225806,377.6774194,512.0967742,29.74193548,No
Armada Area Schools,20469,245,12582,7642,10.82443152,0.129561079,6.653622422,4.041248017,1891,19253,10336,10.18138551,5.465891063,42.8480667,-82.8809153,564.5,97,0,2,0,1,81.5,446.5,541.5,18,No
Ashley Community Schools,3093,220,2199,674,11.24727273,0.8,7.996363636,2.450909091,275,2749,1558,9.996363636,5.665454545,43.1869573,-84.4726116,92,96,0,3,0,1,46,42,94,55,No
Athens Area Schools,6210,331,3782,2097,10.99115044,0.585840708,6.69380531,3.711504425,565,5510,3370,9.752212389,5.96460177,42.1257686,-85.22105785,283,90,1.5,1,0,7.5,109,158,278,44,No
Atherton Community Schools,9310,796,6017,2497,10.09761388,0.863340564,6.526030369,2.70824295,922,8582,4659,9.30802603,5.053145336,42.9835157,-83.62228,300.3333333,61,22,9,0,8,218,61.66666667,295.6666667,79.33333333,No
Atlanta Community Schools,3213,335,338,2540,12.45348837,1.298449612,1.310077519,9.84496124,258,2871,1715,11.12790698,6.647286822,44.9939631,-84.1492465,259,92,1,2,0,4,136,68,239,72,No
Au Gres-Sims School District,4411,376,1518,2517,11.42746114,0.974093264,3.932642487,6.520725389,386,3848,2333,9.968911917,6.044041451,44.0462072,-83.6969632,156.5,93.5,0,3.5,0,3,96.5,71,182.5,60,No
AuTrain-Onota Public Schools,1007,66,100,841,32.48387097,2.129032258,3.225806452,27.12903226,31,982,504,31.67741935,16.25806452,46.4744396,-87.0424802,31,87,0,3,0,10,25,11,42,74,No
Avondale School District,48290,1523,26554,20213,14.51894167,0.457907396,7.983764281,6.077269994,3326,45127,23856,13.56794949,7.172579675,42.62679418,-83.19055388,534.5,59.66666667,18.33333333,5.5,11.5,5.166666667,203.5,342,576.3333333,46.5,No
Bad Axe Public Schools,11225,593,6988,3644,11.08094768,0.585389931,6.898321816,3.597235933,1013,10285,6356,10.15301086,6.274432379,43.80520388,-83.0143088,251,94.75,0.75,2.25,1,1.5,97.5,115.25,232.75,56.25,No
Baldwin Community Schools,19879,1281,11858,6740,35.68940754,2.299820467,21.28904847,12.1005386,557,19408,4876,34.8438061,8.754039497,43.8895519,-85.8558361,128,56,40,2,1,1,101,10,115,91,No
Bangor Public Schools (Van Buren),13456,1737,9278,2441,10.86037127,1.401937046,7.488297014,1.970137207,1239,12792,7163,10.32445521,5.781275222,42.3069768,-86.11874897,287,61.66666667,5,26.33333333,0,7,207,55.66666667,274,75.33333333,No
Bangor Township Schools,24320,1121,18794,4405,9.685384309,0.446435683,7.484667463,1.754281163,2511,23217,13703,9.246117085,5.457188371,43.6273284,-83.9170745,557,83.5,8.333333333,5.333333333,0.833333333,2.5,218.1666667,183.1666667,432.1666667,60.16666667,No
Baraga Area Schools,6092,1053,3145,1894,14.16744186,2.448837209,7.313953488,4.404651163,430,5099,3088,11.85813953,7.181395349,46.7778547,-88.5869031,424,56,0,1,0,44,211,137,384,64,No
Bark River-Harris School District,7175,564,5794,817,9.722222222,0.764227642,7.850948509,1.10704607,738,7503,4359,10.16666667,5.906504065,45.7023805,-87.3448971,316,87,0,1,0,12,126,172,326,47,No
Bath Community Schools,12767,367,8085,4315,11.35854093,0.326512456,7.193060498,3.838967972,1124,11135,6291,9.90658363,5.596975089,42.81629137,-84.4446631,367.3333333,85,1.666666667,6.333333333,1,6,146.6666667,215,388,43.33333333,No
Battle Creek Public Schools,64884,9946,36004,18934,14.50245865,2.223066607,8.04738489,4.232007152,4474,63393,32891,14.16919982,7.351586947,42.32954503,-85.20535829,436.1111111,42.44444444,32.44444444,12.66666667,1.777777778,10.66666667,335,64.33333333,417.7777778,88.33333333,Yes
Bay City School District,83354,5962,60813,16579,10.49666289,0.750787055,7.658103513,2.087772321,7941,78826,46356,9.926457625,5.837551946,43.59591014,-83.92485015,525.8333333,77.25,3.833333333,9.75,3.333333333,5.833333333,280.1666667,224.4166667,539.1666667,62.33333333,No
Beal City Public Schools,7286,191,5518,1577,10.55942029,0.276811594,7.997101449,2.285507246,690,6828,4151,9.895652174,6.015942029,43.67023325,-84.91086125,343,90.5,1,2.5,0.5,5.5,98.5,236,354,33.5,No
Bear Lake Schools,3443,204,1631,1608,11.40066225,0.675496689,5.400662252,5.324503311,302,3060,1647,10.13245033,5.453642384,44.4192692,-86.1467774,148,89,0,8,1,1,65,70,142,51,No
Beaver Island Community School,2133,65,288,1780,41.82352941,1.274509804,5.647058824,34.90196078,51,2199,1379,43.11764706,27.03921569,45.74568,-85.5227065,50,98,0,0,0,2,12,28,46,39,No
Beaverton Rural Schools,11737,998,7320,3419,10.14433881,0.862575627,6.326707001,2.95505618,1157,14133,6820,12.21521175,5.894554883,43.8753045,-84.4879882,573.5,94.5,0.5,3,0.5,2,274.5,207,513,59.5,No
Bedford Public Schools,43537,1001,34209,8327,9.761659193,0.224439462,7.670179372,1.867040359,4460,45546,26808,10.21210762,6.010762332,41.76266957,-83.60413977,775,91,0.333333333,6,1.333333333,1.666666667,167.6666667,582.3333333,778.6666667,25.66666667,No
Beecher Community School District,13406,3693,8390,1323,13.72159672,3.779938588,8.587512794,1.354145343,977,13641,6161,13.96212897,6.306038895,43.09244495,-83.7004826,348,5.5,88,3,0,3.5,349.5,47,402.5,87.5,Yes
Belding Area School District,22827,1566,14692,6569,12.00789058,0.823776959,7.728563914,3.455549711,1901,22707,11505,11.94476591,6.052077854,43.09598398,-85.23121315,457.75,87.75,1,8,0.5,3,235.75,172.5,447.25,62.5,No
Bellaire Public Schools,5294,213,339,4742,13.89501312,0.559055118,0.88976378,12.44619423,381,4489,2429,11.78215223,6.375328084,44.982142,-85.21775265,192,90.5,0.5,1.5,1,6.5,77,104,190.5,45.5,No
Bellevue Community Schools,7015,385,4394,2236,12.32864675,0.676625659,7.722319859,3.92970123,569,6755,3421,11.87170475,6.012302285,42.4483325,-85.02740425,290,93.5,3,1.5,0,2,171.5,114.5,300,60.5,No
Bendle Public Schools,13047,1222,9607,2218,10.96386555,1.026890756,8.073109244,1.863865546,1190,12354,6632,10.38151261,5.573109244,42.9706472,-83.665604,296.5,77.75,7.5,6.75,0,8.25,249.5,22,296.5,92.75,No
Bentley Community School District,8943,599,6506,1838,10.25573394,0.686926606,7.461009174,2.107798165,872,12712,4597,14.57798165,5.271788991,43.0221933,-83.5949787,311,80.5,8,6,0.5,5.5,208,82,315,74,No
Benton Harbor Area Schools,29604,6480,13940,9184,13.45636364,2.945454545,6.336363636,4.174545455,2200,29034,12176,13.19727273,5.534545455,42.10499965,-86.44224675,426,2.5,90,5.25,0,2.25,361.5,85,453.5,82,Yes
Benzie County Central Schools,16345,893,6448,9004,10.86046512,0.593355482,4.284385382,5.982724252,1505,15047,8982,9.998006645,5.968106312,44.60614142,-85.9986227,236.4,90.8,0.4,2.8,0.6,5,142.8,116.2,280.2,60.6,No
Berkley School District,63447,1136,45418,16893,14.40667575,0.257947321,10.31289737,3.835831063,4404,72932,35776,16.56039964,8.123524069,42.49434944,-83.18678114,618.8571429,64.42857143,16.85714286,14.42857143,1.285714286,3,162.5714286,429.1428571,611.7142857,31.71428571,No
Berrien Springs Public Schools,34885,1631,28654,4600,10.87098785,0.508258024,8.929261452,1.43346837,3209,30808,14997,9.600498598,4.67341851,42.41158543,-85.89934248,245.4444444,58.33333333,16.22222222,14.55555556,2.888888889,8.111111111,160.2222222,90,265.2222222,63.55555556,No
Bessemer Area School District,4189,283,3009,897,10.60506329,0.716455696,7.617721519,2.270886076,395,3889,2411,9.84556962,6.103797468,46.4316204,-89.99729845,196,93,1.5,2,0.5,3,113,90,209,56.5,No
Big Bay De Noc School District,2704,374,382,1948,13,1.798076923,1.836538462,9.365384615,208,2629,1300,12.63942308,6.25,45.8688554,-86.5245927,209,76,0,3,0,22,95,57,166,66,No
Big Rapids Public Schools,20677,1370,13017,6290,10.62538541,0.704008222,6.689105858,3.232271326,1946,18776,11093,9.648509764,5.7004111,43.69173538,-85.49306428,386.2,87.6,6,1.8,1.4,3.4,173.8,194,393.2,54.4,No
Birch Run Area Schools,18430,1085,14003,3342,9.74616605,0.573770492,7.405076679,1.767318879,1891,17085,10374,9.034902168,5.485986251,43.24719753,-83.7941481,501.3333333,87,1.666666667,8.333333333,0,3.333333333,208.3333333,266.6666667,510,51,No
Birmingham Public Schools,143141,741,60808,81592,17.60218888,0.091121495,7.477619282,10.03344811,8132,135091,75581,16.6122725,9.294269552,42.53931824,-83.23717242,609.7692308,77.38461538,12.92307692,2.846153846,3.461538462,3.384615385,45.53846154,561.3846154,612.4615385,8.461538462,No
Blissfield Community Schools,11679,486,8822,2371,9.847386172,0.409780776,7.438448567,1.99915683,1186,11284,7154,9.514333895,6.032040472,41.82217825,-83.8688091,332.5,90.5,2,6.5,0,1,91.5,236,340.5,31.5,No
Bloomfield Hills Schools,107300,679,44259,62362,19.60533528,0.124063585,8.086789695,11.394482,5473,125037,59086,22.84615385,10.79590718,42.57354477,-83.28611131,577,71.66666667,11.33333333,2.777777778,9.222222222,5.222222222,65.22222222,532.3333333,605.2222222,14.33333333,No
Bloomingdale Public School District,13114,1129,9058,2927,10.74037674,0.924651925,7.418509419,2.397215397,1221,12097,7295,9.907452907,5.974610975,42.41766013,-85.99782303,375,57,4.666666667,36,0,2.666666667,286.3333333,65.33333333,379.6666667,85.66666667,No
Boyne City Public Schools,14788,546,5441,8801,11.24562738,0.415209125,4.137642586,6.692775665,1315,12969,8560,9.862357414,6.509505703,45.2081996,-85.0021494,333.25,90.25,0.25,2.5,0.75,6.25,131.75,176.75,342.75,53.5,No
Boyne Falls Public School District,3124,126,226,2772,20.68874172,0.834437086,1.496688742,18.35761589,151,2997,1687,19.84768212,11.17218543,45.181619,-84.9394122,150,85,1,0,1,14,111,55,181,70,No
Brandon School District in the Counties of Oakland and Lapeer,33890,868,20924,12098,12.42757609,0.318298497,7.672900623,4.436376971,2727,30144,15037,11.05390539,5.514118078,42.84904798,-83.43218445,559.5,87,3.75,5.5,1.5,2.25,198.5,393,614.25,36.25,No
Brandywine Community Schools,14439,749,10049,3641,10.62472406,0.551140545,7.394407653,2.679175865,1359,13985,7754,10.29065489,5.705665931,41.7904532,-86.2397982,312,85,3.5,6.5,0,4.5,198.5,116,338,65.5,No
Breckenridge Community Schools,7858,428,5281,2149,10.9595537,0.59693166,7.365411437,2.9972106,717,7271,4451,10.14086471,6.207810321,43.4131697,-84.47393765,344,89.5,1.5,7.5,0,1,139.5,165,340,51.5,No
Breitung Township School District,19423,794,11745,6884,10.83872768,0.443080357,6.554129464,3.841517857,1792,17467,10747,9.747209821,5.997209821,45.8051943,-88.1038804,543,92,0,3,1,4,172,348,555,37,No
Bridgeport-Spaulding Community School District,18138,2967,12188,2983,11.42911153,1.869565217,7.679899181,1.879647133,1587,15941,8196,10.0447385,5.164461248,43.3651076,-83.8930878,364,21.66666667,54.66666667,18.66666667,0,5.333333333,291.3333333,68.33333333,364.6666667,84,Yes
Bridgman Public Schools,14821,1799,1235,11787,15.58464774,1.891692955,1.298633018,12.39432177,951,12152,7336,12.77812829,7.713985279,41.93893407,-86.5487822,313.3333333,89.66666667,1.666666667,3.666666667,0.666666667,4.333333333,96.33333333,173.3333333,291,40,No
Brighton Area Schools,82744,640,51176,30928,13.91123067,0.107599193,8.603900471,5.199731002,5948,94462,45896,15.88130464,7.716207128,42.52743213,-83.78141904,739.375,94,1.125,2.125,1,1.625,91.125,647.75,756.75,19.375,No
Brimley Area Schools,6669,1515,3269,1885,12.58301887,2.858490566,6.167924528,3.556603774,530,6269,3665,11.82830189,6.91509434,46.4020886,-84.5732473,225,45,1,0,0,53,101,102,229,55,Yes
Britton Deerfield Schools,7654,258,5383,2013,11.52710843,0.388554217,8.106927711,3.031626506,664,7712,5053,11.61445783,7.609939759,41.985308,-83.835042,361,93,0,3,1,3,130,190,346,45,No
Bronson Community School District,10388,855,7718,1815,9.846445498,0.81042654,7.31563981,1.720379147,1055,9487,5770,8.992417062,5.469194313,41.86891923,-85.1914844,382.3333333,75.33333333,5.333333333,15,0.333333333,4.333333333,178,141,352,62,No
Brown City Community Schools,9534,624,7206,1704,10.88356164,0.712328767,8.226027397,1.945205479,876,9043,4794,10.32305936,5.47260274,43.21456855,-82.99238665,429,93.5,1.5,3.5,0.5,1,197.5,170.5,409.5,58.5,No
Buchanan Community Schools,16396,849,11252,4295,10.49679898,0.543533931,7.203585147,2.749679898,1562,19869,8822,12.72023047,5.647887324,41.8298552,-86.370075,388.75,86.25,3.5,2.25,0.25,7.75,170.75,172,372,54.75,No
Buckley Community Schools,4494,253,3069,1172,10.77697842,0.606714628,7.35971223,2.810551559,417,3886,2365,9.318944844,5.67146283,44.5024161,-85.6759743,420,96,0,2,0,2,175,199,413,52,No
Bullock Creek School District,20617,1132,14867,4618,11.0369379,0.605995717,7.958779443,2.472162741,1868,19712,11190,10.55246253,5.990364026,43.58268173,-84.27828147,400,95,0.666666667,2.333333333,0.333333333,1.666666667,122.3333333,208,350,39.66666667,No
Burr Oak Community School District,2809,308,1994,507,10.6,1.162264151,7.524528302,1.913207547,265,2707,1453,10.21509434,5.483018868,41.8467047,-85.31514,188,89,1,8,0,2,148,65,227,71,No
Burt Township School District,961,35,268,658,38.44,1.4,10.72,26.32,25,916,435,36.64,17.4,46.6683084,-85.9787546,25,100,0,0,0,0,24,5,30,83,No
Byron Center Public Schools,48129,939,27993,19197,12.54666319,0.244786236,7.297445255,5.0044317,3836,45187,23367,11.77971846,6.091501564,42.81779417,-85.70742857,632,84.66666667,2,6,3,4.666666667,134.5,492.6666667,656.5,25.16666667,No
Byron Area Schools,9693,356,7648,1689,9.921187308,0.364380757,7.828045036,1.728761515,977,9330,5906,9.54964176,6.045035824,42.8252055,-83.94527575,360.5,94,0,1,0.5,4,134,225.5,379.5,41,No
Cadillac Area Public Schools,32545,2205,21389,8951,10.45118818,0.708092486,6.868657675,2.874438022,3114,30476,18547,9.786769428,5.956005138,44.24360169,-85.43327804,413,86.85714286,2.857142857,5.571428571,1,4.142857143,184.1428571,207.1428571,422.7142857,51.57142857,No
Caledonia Community Schools,57659,755,34936,21968,12.4345482,0.162820789,7.534181583,4.737545827,4637,65673,30108,14.16282079,6.492991158,42.79947351,-85.52602626,504.2222222,89.33333333,1.333333333,4.666666667,1.444444444,3.444444444,77.44444444,427.6666667,528.6666667,19.55555556,No
Camden-Frontier School District,5390,545,3598,1247,10.61023622,1.072834646,7.082677165,2.454724409,508,4844,3120,9.535433071,6.141732283,41.7810515,-84.7065739,158,98,1,0,1,1,81,82,173,53,No
Capac Community Schools,11271,590,8185,2496,10.47490706,0.548327138,7.606877323,2.319702602,1076,12713,6419,11.81505576,5.965613383,43.0191706,-82.9320777,418,81,0,17,1,1,206,192,419,54,No
Carman-Ainsworth Community Schools,56956,4632,40450,11874,11.12639187,0.904864231,7.901933971,2.319593671,5119,54961,29413,10.73666732,5.745848799,42.98355929,-83.73161386,588.125,39.125,43.75,5.875,0.75,11.125,393.5,123.125,547.375,77.5,Yes
Carney-Nadeau Public Schools,3043,255,2130,658,10.82918149,0.90747331,7.580071174,2.341637011,281,3038,1591,10.8113879,5.661921708,45.590144,-87.5543572,187,14,70,8,0,9,144,33,183,82,Yes
Caro Community Schools,18569,1149,13419,4001,10.65958668,0.659586682,7.703214696,2.296785304,1742,18742,10346,10.75889782,5.939150402,43.49370678,-83.40177725,307.5,92.75,0.5,5,0.5,1.5,175,104,301.25,67,No
Carrollton Public Schools,22899,1485,18522,2892,11.60618348,0.752660922,9.387734415,1.46578814,1973,21928,13806,11.11403953,6.997465788,43.4632423,-83.93962305,646,41,26,27.5,0,5,449,117.5,629,80.5,Yes
Carson City-Crystal Area Schools,10023,648,6746,2629,11.00219539,0.711306257,7.405049396,2.885839737,911,9887,5237,10.85290889,5.748627881,43.17544385,-84.84075525,275,94.5,0,4.5,0.5,0.5,117,112,245,54.5,No
Carsonville-Port Sanilac School District,4421,225,2581,1615,11.1080402,0.565326633,6.484924623,4.057788945,398,4043,2345,10.15829146,5.891959799,43.42939815,-82.6490049,169.5,97.5,0.5,2,0,0.5,92.5,55.5,167.5,66.5,No
Caseville Public Schools,3617,194,785,2638,11.66774194,0.625806452,2.532258065,8.509677419,310,3518,2067,11.3483871,6.667741935,43.9424932,-83.2684711,306,95,1,3,0,1,167,88,272,68,No
Cass City Public Schools,10630,693,7720,2217,10.61938062,0.692307692,7.712287712,2.214785215,1001,10472,6491,10.46153846,6.484515485,43.6087897,-83.1725028,485,94,1,3.5,0.5,1,192,248.5,484,48.5,No
Cassopolis Public Schools,11384,956,4251,6177,11.85833333,0.995833333,4.428125,6.434375,960,11708,5132,12.19583333,5.345833333,41.90739547,-86.00431193,311.6666667,68.33333333,15.33333333,3.333333333,2,12.33333333,177.6666667,104.3333333,305.3333333,64,No
Cedar Springs Public Schools,38248,1414,26991,9843,11.15427238,0.412365121,7.871391076,2.870516185,3429,42588,20526,12.41994751,5.98600175,43.2140492,-85.54495537,507.3333333,87.66666667,1,4.666666667,0,6,176,334,546.6666667,51.66666667,No
Center Line Public Schools,34190,2810,21488,9892,12.91650926,1.061579146,8.117869286,3.737060824,2647,34324,19495,12.9671326,7.364941443,42.48728114,-83.0253512,484.6,55,22.2,3.8,11.2,7.8,320,116.4,472.8,75.6,No
Central Lake Public Schools,3951,234,370,3347,13.71875,0.8125,1.284722222,11.62152778,288,3968,2420,13.77777778,8.402777778,45.0680372,-85.2684,288,92,0,2,0,6,149,109,281,61,No
Central Montcalm Public Schools,18326,1209,12887,4230,10.76100998,0.709923664,7.567234292,2.483852026,1703,16454,9688,9.661773341,5.688784498,43.2443962,-85.0747484,373,94,0,3,0.5,2.5,227.5,97,355.5,74,No
Centreville Public Schools,8684,363,5912,2409,10.82793017,0.452618454,7.371571072,3.003740648,802,8104,4707,10.10473815,5.869077307,41.9178837,-85.5255882,393,94,3,2,1,2,127,227,379,40,No
Charlevoix Public Schools,13812,414,2129,11269,13.47512195,0.403902439,2.077073171,10.99414634,1025,12320,6936,12.0195122,6.766829268,45.3106959,-85.257835,539,90,1,2,1,5,160,298,484,38,No
Charlotte Public Schools,30343,2146,18191,10006,12.33455285,0.872357724,7.394715447,4.067479675,2460,30142,14091,12.25284553,5.72804878,42.55581383,-84.84563325,547.25,71,4,20,0.75,4,247,266.5,536.5,54.25,No
Chassell Township School District,2706,133,1827,746,10.48837209,0.515503876,7.081395349,2.891472868,258,2423,1546,9.391472868,5.992248062,47.0170197,-88.5205578,260,94,4,1,0,1,88,133,250,47,No
Cheboygan Area Schools,19438,1269,10259,7910,10.98812889,0.717354438,5.799321651,4.471452798,1769,19335,11241,10.9299039,6.354437535,45.61923193,-84.49645675,382,87,0.25,1.75,0.75,10.5,218.75,156.5,405.75,68.5,No
Chelsea School District,33566,321,17989,15256,13.61151663,0.130170316,7.294809408,6.186536902,2466,30007,15446,12.16828873,6.263584753,42.3169191,-84.01364623,611.75,90.5,0.25,4.25,0.75,4,65.25,533,605.5,11.75,No
Chesaning Union Schools,15663,864,11547,3252,10.59026369,0.584178499,7.807302231,2.198782961,1479,23298,8524,15.7525355,5.763353617,43.1884534,-84.12020503,485.6666667,89.66666667,0.666666667,7,0.666666667,2,212.6666667,217,463,53,No
Chippewa Hills School District,22787,1874,11854,9059,10.91331418,0.897509579,5.677203065,4.338601533,2088,23409,13426,11.2112069,6.430076628,43.65082992,-85.12970168,286.6,86,0.8,2.8,0,10.4,175,96.4,291.8,70.2,No
Chippewa Valley Schools,184834,4547,124987,55300,11.25595274,0.276901529,7.611412216,3.367638999,16421,172749,97353,10.52000487,5.928567079,42.62200803,-82.92977734,844.9473684,78.52631579,10,4.105263158,2.631578947,4.789473684,216.6842105,588,835.7368421,34.94736842,No
Clare Public Schools,15270,1391,10833,3046,10.15968064,0.925482369,7.20758483,2.02661344,1503,15147,8910,10.07784431,5.928143713,43.8244415,-84.7695481,378,95.75,0.5,1.25,0.5,2,167,203.25,397,56.25,No
Clarenceville School District,21770,892,15223,5655,11.76121016,0.481901675,8.224203133,3.055105348,1851,20838,12684,11.25769854,6.852512156,42.4347794,-83.33473252,454,64.25,23.25,5,2.25,5.75,244.75,164.75,437,63.25,No
Clarkston Community School District,96099,1291,64597,30211,12.42552366,0.166925265,8.352340315,3.906258081,7734,88478,54144,11.44013447,7.000775795,42.73528909,-83.41035233,757,87,2.444444444,6.777777778,1.888888889,1.777777778,130.6666667,595.2222222,745.4444444,23.66666667,No
Clawson Public Schools,25262,448,14316,10498,15.28251664,0.271022384,8.66061706,6.350877193,1653,29906,12325,18.09195402,7.456140351,42.53600338,-83.15231725,404.25,73,13.25,6.25,1,6.5,138.5,242,401.25,39.75,No
Climax-Scotts Community Schools,6117,211,4013,1893,12.53483607,0.432377049,8.223360656,3.879098361,488,5225,2638,10.70696721,5.405737705,42.2129743,-85.37322545,246.5,88.5,0.5,7,0,3.5,96,109.5,238,55,No
Clinton Community Schools,12068,278,7929,3861,11.27850467,0.259813084,7.410280374,3.608411215,1070,11760,6856,10.99065421,6.407476636,42.071312,-83.96632703,350.3333333,95.33333333,1.666666667,2,0.333333333,1.333333333,100.6666667,245,365.6666667,32.33333333,No
Clintondale Community Schools,33835,2514,24425,6896,11.38842141,0.846179737,8.221137664,2.321104005,2971,30695,16807,10.3315382,5.657017839,42.50668707,-82.96801612,286.5,26.9,64.5,2.5,0.9,5.3,206.1,63,279.1,77.4,Yes
Clio Area School District,30526,1514,24196,4816,9.635732323,0.47790404,7.637626263,1.52020202,3168,31918,18544,10.07512626,5.853535354,43.17580802,-83.73038397,527.5,91.16666667,2,3,0.5,3.5,232.6666667,236.5,510.3333333,57.83333333,No
Coldwater Community Schools,29208,1791,16754,10663,10.77785978,0.660885609,6.182287823,3.934686347,2710,28355,14993,10.46309963,5.532472325,41.92932888,-84.99975668,561.8,88.8,1,7,1.2,2.4,281.8,249.8,557.4,55.4,No
Coleman Community Schools,7832,480,5236,2116,11.3015873,0.692640693,7.555555556,3.053391053,693,11292,4227,16.29437229,6.0995671,43.7547871,-84.5718365,345.5,97,1,1.5,0,0.5,182.5,139,346,59.5,No
Coloma Community Schools,16923,1677,9981,5265,10.91806452,1.081935484,6.439354839,3.396774194,1550,16722,9910,10.7883871,6.393548387,42.16677558,-86.3417706,302.4,66.6,17.6,8,0.2,8,194,79.4,294.4,75.6,No
Colon Community School District,7300,476,3757,3067,12.52144082,0.816466552,6.444253859,5.260720412,583,6274,3302,10.76157804,5.66380789,41.97948337,-85.33051007,187.3333333,96.66666667,0,1.333333333,0.666666667,1.333333333,93,85.33333333,186.6666667,58.33333333,No
Columbia School District,15456,684,7146,7626,11.04,0.488571429,5.104285714,5.447142857,1400,30497,8658,21.78357143,6.184285714,42.10793062,-84.2761452,352.25,92.25,0.5,3.75,0.75,3.25,146.25,194.75,356.75,48,No
Comstock Park Public Schools,25984,2024,14969,8991,12.72477963,0.991185113,7.330558276,4.403036239,2042,24628,13625,12.06072478,6.67238002,43.05345483,-85.66562417,528.25,72,6.25,15.5,0.75,5.75,213,218.25,475.25,55,No
Comstock Public Schools,23781,1611,12728,9442,12.52950474,0.848788198,6.706006322,4.974710221,1898,23194,10758,12.22023182,5.668071654,42.29629738,-85.51011775,401,70.83333333,10.16666667,9.333333333,1,9,178.1666667,127.6666667,313.3333333,59.83333333,No
Concord Community Schools,8066,422,5839,1805,10.78342246,0.564171123,7.806149733,2.413101604,748,7399,4235,9.89171123,5.661764706,42.1726664,-84.64240545,273,79,8.5,6.5,0,5.5,121.5,123,260,53,No
Constantine Public School District,15096,922,10103,4071,10.59368421,0.647017544,7.089824561,2.856842105,1425,14337,7834,10.06105263,5.49754386,41.83444916,-85.66783118,287.4,86.8,3.8,6.4,1.4,2.2,136,131.8,301.2,59.4,No
Coopersville Area Public School District,32225,875,22074,9276,12.26684431,0.333079558,8.402740769,3.531023982,2627,29416,16018,11.19756376,6.097449562,43.0639674,-85.9247737,236,91,1,7,0,2,85,91,198,54,No
Corunna Public Schools,19373,1046,14518,3809,10.2124407,0.551396943,7.653136531,2.007907222,1897,19050,11553,10.04217185,6.09014233,42.97252788,-84.09595548,468.5,93.25,1.25,2.25,0.25,3.25,210.5,205.5,451.5,57.75,No
Covert Public Schools,8047,934,469,6644,25.54603175,2.965079365,1.488888889,21.09206349,315,6588,2521,20.91428571,8.003174603,42.2894428,-86.2614974,115.5,12,21,59.5,0,8,112.5,4,121,96,Yes
Crawford AuSable Schools,17883,1153,8922,7808,11.28977273,0.72790404,5.632575758,4.929292929,1584,18966,10456,11.97348485,6.601010101,44.65360825,-84.71354445,399.5,89.75,0.75,4.75,1.75,3,218,163.25,404.75,60.75,No
Crestwood School District,40121,3052,32103,4966,10.72467255,0.815824646,8.581395349,1.327452553,3741,40451,27504,10.81288426,7.352044908,42.33458598,-83.28914977,469.5,75.5,13.83333333,5.833333333,2.5,2.666666667,335.3333333,125.1666667,488.8333333,70.66666667,No
Croswell-Lexington Community Schools,22776,1659,15872,5245,10.24561404,0.746288799,7.139901035,2.359424202,2223,21808,12987,9.810166442,5.842105263,43.26731798,-82.58915683,534.25,93.5,0,5.25,0,1.25,226,249.5,521.5,53.75,No
Dansville Schools,8189,229,5751,2209,10.62127108,0.297016861,7.459143969,2.865110246,771,7954,4816,10.31647211,6.246433204,42.5533508,-84.30704385,296.5,94.5,0.5,2.5,1,2,75,170.5,265,35.5,No
Davison Community Schools,54860,2082,43232,9546,9.646562335,0.366098119,7.601899068,1.678565149,5687,57351,31222,10.08457886,5.490065061,43.03068785,-83.52251784,661.375,84.125,2.75,5.75,2.625,5.125,234.875,380.875,659.125,45.5,No
Dearborn Heights School District #7,26949,2157,21645,3147,10.16176471,0.813348416,8.161764706,1.186651584,2652,25876,15608,9.757164404,5.885369532,42.27557052,-83.24183392,511.8,64.6,20.2,11.8,0.8,2.6,335.6,127.4,495.2,76.2,No
Dearborn City School District,251095,20486,153823,76786,12.66940814,1.033654574,7.761390585,3.874362985,19819,266196,139580,13.43135375,7.042736768,42.31579479,-83.21723555,593.2903226,89.74193548,4.870967742,2.548387097,2.258064516,0.580645161,440.2258065,160.483871,623.5483871,72.32258065,No
Decatur Public Schools,9246,1346,6473,1427,11.05980861,1.610047847,7.742822967,1.706937799,836,8295,4968,9.922248804,5.942583732,42.1109195,-85.9837125,265.6666667,72,1.666666667,18.33333333,0.333333333,7.333333333,144.6666667,90.66666667,256.3333333,63.66666667,No
Deckerville Community School District,5718,479,3702,1537,9.593959732,0.803691275,6.211409396,2.57885906,596,6061,3567,10.16946309,5.984899329,43.5272369,-82.7295761,337,90,1,7,1,1,176,103,308,67,No
Delton Kellogg Schools,14531,649,8134,5748,11.11782708,0.496557001,6.223412395,4.397857689,1307,15097,7621,11.55087988,5.830910482,42.5010647,-85.41161305,414,92,2,3.5,0,2.5,189,185.5,400,53.5,No
DeTour Area Schools,3818,186,471,3161,26.6993007,1.300699301,3.293706294,22.1048951,143,3620,2067,25.31468531,14.45454545,46.00321565,-83.82243275,72,75,1,0.5,0,23.5,24,18.5,47.5,61.5,No
Detroit Public Schools,838553,193905,430745,213903,17.98852325,4.159623305,9.240282307,4.588617642,46616,807406,303011,17.32036211,6.500150163,42.37977949,-83.09770604,507.4756098,4.768292683,81.76829268,11.70731707,1.134146341,0.573170732,426.8414634,72.53658537,505.2073171,86.96341463,Yes
DeWitt Public Schools,33592,371,24505,8716,10.80823681,0.119369369,7.884491634,2.804375804,3108,29488,17982,9.487773488,5.785714286,42.82945913,-84.57969873,518.1666667,85.66666667,1.5,7.166666667,1.333333333,4.333333333,81.5,437,532.1666667,18.5,No
Dexter Community School District,49740,517,27751,21472,13.97583591,0.145265524,7.797415004,6.033155381,3559,43909,21891,12.33745434,6.15088508,42.32765398,-83.88482732,611,90.5,2.166666667,3.333333333,1.833333333,2.833333333,78.5,478.1666667,568.3333333,18.66666667,No
Dowagiac Union School District,23666,2185,14480,7001,10.36618484,0.957074025,6.342531756,3.066579063,2283,23403,13573,10.25098555,5.945247481,42.00392553,-86.11763269,376,52.57142857,11.42857143,22.57142857,0.142857143,13.57142857,217,73.42857143,315.5714286,80,No
Dryden Community Schools,5748,244,4074,1430,10.30107527,0.437275986,7.301075269,2.562724014,558,5432,3183,9.734767025,5.704301075,42.9491081,-83.1489639,304,96,1,3,0,0,70,179,268,33,No
Dundee Community Schools,16604,375,10895,5334,10.76783398,0.243190661,7.065499351,3.459143969,1542,15483,8780,10.04085603,5.693904021,41.95891637,-83.66003397,482.6666667,94.33333333,2.666666667,1.666666667,0.333333333,1.333333333,129.3333333,256.3333333,404.6666667,43,No
Durand Area Schools,15305,777,10988,3540,10.547898,0.535492764,7.572708477,2.439696761,1451,14450,8650,9.958649207,5.961405927,42.9180873,-83.9828838,356.5,93,0.25,5.25,0,1.25,159.5,152,341.5,57.5,No
East China School District,46635,1201,23296,22138,10.96520103,0.282388902,5.477545262,5.20526687,4253,43767,27154,10.29085352,6.384669645,42.78070753,-82.51535216,416.7,96.4,1,0.9,0.6,1.4,115.5,272.4,406.4,36,No
East Detroit Public Schools,37578,4483,25094,8001,11.61966605,1.386209029,7.759431045,2.474025974,3234,37663,20451,11.64594929,6.323747681,42.4594442,-82.9722195,260,23,60,1,2,15,234,38,285,87,Yes
East Grand Rapids Public Schools,37013,155,23928,12930,12.50861778,0.052382562,8.086515715,4.3697195,2959,39853,19466,13.46840149,6.578573843,42.94436676,-85.6123379,587.8,90,3.2,2.4,2.2,2.6,34,541,579.8,6.8,No
East Jackson Community Schools,12740,951,7617,4172,11.85116279,0.884651163,7.085581395,3.880930233,1075,12159,7379,11.31069767,6.864186047,42.2775546,-84.31850185,357,87,4,3.5,1,5,221,70,310.5,76.5,No
East Jordan Public Schools,10671,568,4516,5587,11.8830735,0.632516704,5.028953229,6.221603563,898,9279,5745,10.33296214,6.397550111,45.1573074,-85.1225466,484,93,0,3,0,4,234,174,448,61,No
East Lansing School District,45809,1293,24500,20016,12.64743236,0.356985091,6.764218664,5.526228603,3622,41355,22080,11.41772501,6.096079514,42.747514,-84.4753027,508.8571429,58.57142857,15.85714286,9.142857143,8.571428571,8.285714286,156.2857143,329.4285714,512.2857143,38,No
Easton Township S/D #6,254,23,200,31,9.071428571,0.821428571,7.142857143,1.107142857,28,283,226,10.10714286,8.071428571,43.0158696,-85.1037101,27,96,0,4,0,0,7,14,21,33,No
Eaton Rapids Public Schools,27244,1638,18556,7050,11.22075783,0.674629325,7.642504119,2.903624382,2428,25782,14998,10.61861614,6.177100494,42.50463596,-84.63886672,458.2,89.2,1.2,6.2,0.8,2.8,197.8,205.2,450.8,55.4,No
Eau Claire Public Schools,9443,1666,6864,913,11.34975962,2.002403846,8.25,1.097355769,832,9463,5746,11.37379808,6.90625,41.98247305,-86.30956025,269.5,40.5,25.5,28.5,0.5,4.5,252,34,298.5,88,Yes
Ecorse Public Schools,17761,4452,9647,3662,16.26465201,4.076923077,8.834249084,3.353479853,1092,16005,6193,14.65659341,5.671245421,42.2502842,-83.1526756,344.6666667,13,78.66666667,7,0,1.666666667,274.3333333,62.33333333,339,82,Yes
Edwardsburg Public Schools,25814,853,20650,4311,9.352898551,0.309057971,7.481884058,1.561956522,2760,26099,13893,9.45615942,5.033695652,41.79341095,-86.07414005,578.75,90.75,1.25,2.75,0.75,4.75,148.75,397,580.75,33.5,No
Elk Rapids Schools,13937,441,3124,10372,10.70430108,0.338709677,2.399385561,7.966205837,1302,13208,7602,10.14439324,5.838709677,44.8719663,-85.3970169,253,85.4,1.2,7.2,0.4,5.6,73.8,175.6,260.2,38.8,No
Ellsworth Community School,2876,169,1514,1193,10.57352941,0.621323529,5.566176471,4.386029412,272,2777,1546,10.20955882,5.683823529,45.168805,-85.2467113,266,82,2,6,1,8,128,115,265,57,No
Engadine Consolidated Schools,2996,195,442,2359,11.05535055,0.719557196,1.63099631,8.704797048,271,3607,1712,13.3099631,6.317343173,46.1175651,-85.5677795,256,72,2,2,0,24,111,92,235,61,No
Escanaba Area Public Schools,27165,1428,17320,8417,11.39949643,0.59924465,7.268149392,3.532102392,2383,26345,15387,11.05539236,6.456986991,45.75483217,-87.0794872,357.1666667,88.16666667,0.666666667,2,3.833333333,6,143.6666667,156.6666667,321.8333333,58,No
Essexville-Hampton Public Schools,17862,500,10715,6647,10.54427391,0.295159386,6.325265643,3.923848878,1694,20913,9440,12.34533648,5.572609209,43.60690453,-83.83071403,415,92.25,2.25,3.75,0.5,1.5,145.25,270,430.25,38.25,No
Evart Public Schools,9655,897,5911,2847,11.23981374,1.044237485,6.881257276,3.314318976,859,9327,5448,10.85797439,6.34225844,43.9044708,-85.26973557,280.3333333,96,2,2.333333333,0,0,200,78.66666667,291.6666667,72.66666667,No
Ewen-Trout Creek Consolidated School District,3149,539,665,1945,15.13942308,2.591346154,3.197115385,9.350961538,208,5189,1565,24.94711538,7.524038462,46.5385894,-89.2914837,215,92,0,2,0,6,106,82,204,60,No
Fairview Area School District,3235,303,430,2502,11.07876712,1.037671233,1.47260274,8.568493151,292,3689,1905,12.63356164,6.523972603,44.725954,-84.0554505,218,33,21,29,1,16,166,24,207,88,Yes
Farmington Public School District,155122,3159,81893,70070,15.46580259,0.314955135,8.164805583,6.986041874,10030,155515,86834,15.50498504,8.657427717,42.48849061,-83.36450215,575.7692308,62.30769231,22.23076923,3.307692308,7.461538462,4.846153846,156.3076923,400.3076923,580.3846154,34.15384615,No
Farwell Area Schools,13893,1403,7540,4950,10.6541411,1.075920245,5.782208589,3.79601227,1304,13159,8378,10.09125767,6.424846626,43.84109923,-84.8717179,322.75,90.5,1.75,3.75,0.5,4.25,191.75,97.75,309.25,71,No
Fennville Public Schools,15615,1275,9216,5124,11.49852725,0.938880707,6.786450663,3.773195876,1358,15041,7789,11.07584683,5.735640648,42.59876787,-86.1070996,438,45.66666667,1.666666667,50.33333333,0,2.333333333,280.3333333,103,436.6666667,75.66666667,Yes
Fenton Area Public Schools,39148,1580,24358,13210,11.58910598,0.467732386,7.210775607,3.910597987,3378,36402,20790,10.77619893,6.154529307,42.7925408,-83.71623713,559.6666667,91.5,0.666666667,3.666666667,0.833333333,3,133.1666667,399.1666667,559,32.5,No
Ferndale Public Schools,38858,4337,23386,11135,12.82442244,1.431353135,7.718151815,3.674917492,3030,37689,17449,12.43861386,5.758745875,42.4561286,-83.14803288,466.5,18.75,72.5,2.25,1,5.5,295.75,173.75,503.25,67.25,Yes
Fitzgerald Public Schools,34080,2621,22080,9379,12.90909091,0.99280303,8.363636364,3.552651515,2640,31983,17503,12.11477273,6.629924242,42.46552768,-83.06418363,612,35.25,37.75,4.25,18,4.5,481.25,69.25,582.5,88,Yes
Flat Rock Community Schools,21241,797,14910,5534,11.16184971,0.418812401,7.834997373,2.908039937,1903,18574,10035,9.76037835,5.273252759,42.09361615,-83.27831465,453.25,87,4,6.25,1,2.25,178.25,274.25,467.75,41.75,No
"Flint, School District of the City of",88287,22308,39929,26050,16.3131929,4.12195122,7.377864006,4.813377679,5412,77176,37492,14.2601626,6.927568367,43.02991156,-83.69577736,411.3076923,19.07692308,72.61538462,4.230769231,0.076923077,4.307692308,318.7692308,23.07692308,346.3846154,92.53846154,Yes
Flushing Community Schools,39790,1335,32169,6286,9.730985571,0.326485693,7.867204696,1.537295182,4089,38827,24423,9.495475666,5.972853999,43.07180124,-83.83954854,565,83.14285714,7.571428571,4.714285714,1,4,213.1428571,311,560.2857143,47.85714286,No
Forest Hills Public Schools,131904,1016,75732,55156,13.21286187,0.101773014,7.586096364,5.524992487,9983,121744,65837,12.19513172,6.594911349,42.96904951,-85.53304222,587.6,78.66666667,5.6,5.666666667,6.133333333,4.066666667,102.3333333,425.2,539.7333333,16.53333333,No
Forest Park School District,5124,298,1316,3510,11.77931034,0.685057471,3.025287356,8.068965517,435,4447,2685,10.22298851,6.172413793,46.0962358,-88.3391493,447,92,0,2,1,4,180,202,417,52,No
Fowler Public Schools,5272,140,4214,918,10.11900192,0.268714012,8.088291747,1.761996161,521,4973,3226,9.545105566,6.19193858,43.0018477,-84.7427226,259.5,95.5,1,2,1.5,0.5,46.5,192,248.5,21,No
Fowlerville Community Schools,32811,858,22181,9772,11.29466437,0.29535284,7.63545611,3.363855422,2905,29439,16478,10.13390706,5.672289157,42.66821337,-84.06733285,552.75,95.75,0.5,1.75,0.25,2,159.5,350.25,538.75,38.25,No
Frankenmuth School District,14085,247,7621,6217,11.34971797,0.199033038,6.14101531,5.009669621,1241,12498,7211,10.07091056,5.810636583,43.3350433,-83.7289022,414,90.33333333,2.333333333,4.666666667,1,2.333333333,72.66666667,337.3333333,425,21.66666667,No
Frankfort-Elberta Area Schools,7214,303,603,6308,15.12368973,0.635220126,1.264150943,13.22431866,477,7095,4047,14.87421384,8.48427673,44.6359144,-86.23114825,235,88,1,4,1,6,106.5,109,227.5,53,No
Fraser Public Schools,61250,2530,43451,15269,11.59818216,0.479075933,8.227797766,2.891308464,5281,59713,32058,11.3071388,6.070441204,42.53900602,-82.9475284,582.7777778,74.55555556,15.22222222,3.111111111,2.222222222,5.444444444,211.1111111,299.5555556,551,48.44444444,No
Freeland Community School District,18386,770,14002,3614,9.687038988,0.4056902,7.377239199,1.904109589,1898,17489,10550,9.214436249,5.558482613,43.51852157,-84.11616973,619,93.66666667,1.333333333,2.666666667,1,1.333333333,98,536,650.3333333,18.33333333,No
Fremont Public School District,25605,2055,16087,7463,11.97614593,0.961178672,7.524321796,3.490645463,2138,24794,14263,11.59681946,6.671188026,43.46505192,-85.94769502,416.2,92,1.2,5.6,0.6,0.4,187,188,414.4,58.4,No
Fruitport Community Schools,31058,1527,21055,8476,10.84048866,0.532984293,7.34904014,2.958464223,2865,31679,17375,11.05724258,6.064572426,43.15226378,-86.1725185,528.4,87.6,3.6,5.6,1.2,2.6,250,270,568,53.4,No
Fulton Schools,8651,546,6645,1460,10.81375,0.6825,8.30625,1.825,800,9539,4885,11.92375,6.10625,43.1784406,-84.71009807,235,93.33333333,0.666666667,4.333333333,0.333333333,1.333333333,111.6666667,96.66666667,219,56.33333333,No
Galesburg-Augusta Community Schools,12772,597,7882,4293,12.42412451,0.5807393,7.667315175,4.176070039,1028,11248,6148,10.94163424,5.980544747,42.3068917,-85.39778143,340.3333333,89.66666667,2.333333333,4.333333333,0.333333333,4.333333333,165,157,347,54.66666667,No
Garden City Public Schools,55208,3311,35060,16837,13.96963563,0.837803644,8.87145749,4.260374494,3952,50915,30508,12.8833502,7.719635628,42.32526319,-83.3421408,493.7142857,82.14285714,9.857142857,4.714285714,1.142857143,2.714285714,275.7142857,177.4285714,480.4285714,64.57142857,No
Gaylord Community Schools,33195,1337,16753,15105,10.93379447,0.440382082,5.518115942,4.975296443,3036,30675,18427,10.10375494,6.069499341,45.03025744,-84.67089022,605.4,93.2,1,2,0.6,3.2,282.4,303.4,618,52.6,No
Genesee School District,7454,641,5765,1048,10.67908309,0.918338109,8.259312321,1.501432665,698,7378,4374,10.57020057,6.266475645,43.1152045,-83.6197279,314,82,8,5,0,5,188,63,276,77,No
Gibraltar School District,38277,1745,26470,10062,10.85256592,0.494754749,7.504961724,2.852849447,3527,34401,20185,9.75361497,5.722994046,42.09337027,-83.2258044,572.6666667,82,6.333333333,6,1.833333333,4,148.3333333,411.3333333,579.6666667,31.66666667,No
Gladstone Area Schools,15763,565,11666,3532,9.951388889,0.356691919,7.36489899,2.22979798,1584,14390,8465,9.08459596,5.344065657,45.85256508,-87.03788575,394,91.25,0.75,0.75,0.25,7,145.5,238,397.5,41,No
Gladwin Community Schools,17047,1294,9898,5855,10.0750591,0.764775414,5.849881797,3.460401891,1692,16546,10040,9.778959811,5.933806147,43.98837215,-84.49264092,411.75,94,0.5,2,0.75,2.75,211.5,177,415.5,58.5,No
Gobles Public School District,9475,410,6324,2741,10.71832579,0.463800905,7.153846154,3.100678733,884,10604,4769,11.99547511,5.39479638,42.3636826,-85.8812435,384,89,0,5,0,6,200,139,376,63,No
Godfrey-Lee Public Schools,22738,2106,16351,4281,11.61287028,1.075587334,8.350868233,2.186414709,1958,21957,11695,11.21399387,5.972931563,42.93141775,-85.69375843,356.25,10.75,10,76.5,0,3.25,303.25,14,335.25,96.25,Yes
Godwin Heights Public Schools,28138,2849,17535,7754,12.7321267,1.289140271,7.93438914,3.508597285,2210,29625,16684,13.40497738,7.549321267,42.9004134,-85.67015602,435.2,20,21.6,48.4,2.6,8,334.6,55.8,426.2,84,Yes
Goodrich Area Schools,22458,385,16474,5599,10.93378773,0.187439143,8.020447907,2.725900682,2054,20880,12247,10.16553067,5.962512171,42.91882375,-83.52898,568.75,90.5,4.75,2,1,2,116.5,422.75,559.5,25.5,No
Grand Blanc Community Schools,86250,2303,62640,21307,10.35414166,0.276470588,7.519807923,2.557863145,8330,84892,47146,10.19111645,5.659783914,42.92961257,-83.6337218,717.4545455,67,19.45454545,3.636363636,3.181818182,7,208.1818182,477.7272727,722.8181818,38.27272727,No
Grand Haven Area Public Schools,76932,1897,37385,37650,12.30321446,0.30337438,5.978730209,6.021109867,6253,78863,43457,12.61202623,6.949784104,43.0432913,-86.20492867,591.6666667,86.75,1.416666667,5.916666667,1.666666667,4.25,151.5833333,396,586.5833333,37.5,No
Grand Ledge Public Schools,56636,1091,35968,19577,10.99941736,0.211885803,6.985434065,3.802097495,5149,52689,29457,10.23286075,5.720916683,42.73553468,-84.7339221,639.5,79.5,6.25,7.5,2.875,4.125,145.75,470.375,649.125,34.5,No
Grand Rapids Public Schools,253921,28422,128925,96574,15.62975502,1.749476794,7.935799581,5.944478641,16246,255488,121893,15.72620953,7.502954573,42.96192249,-85.66728545,356.6341463,25.07317073,36.65853659,29.70731707,1.12195122,7.707317073,245.1463415,78.29268293,342.3414634,77.48780488,Yes
Grandville Public Schools,61975,1382,36946,23647,11.06103873,0.246653578,6.593967517,4.220417633,5603,84453,35438,15.07281813,6.324825986,42.89790819,-85.76446671,612.3333333,75.33333333,3.444444444,11.77777778,3.333333333,6,161.4444444,419.8888889,624.5555556,37.66666667,No
Grant Public School District,18717,1411,14778,2528,10.11183144,0.762290654,7.983792545,1.365748244,1851,17767,10729,9.598595354,5.79632631,43.33587166,-85.8036439,362.2,73.8,1,22.4,0.4,2.6,197,149,369.2,55.8,No
Grass Lake Community Schools,15772,252,9775,5745,12.19798917,0.194895592,7.559938128,4.443155452,1293,14056,8478,10.870843,6.556844548,42.24692327,-84.198896,433.6666667,93,0.333333333,4,0.333333333,2.333333333,101.6666667,302,418,27.66666667,No
Greenville Public Schools,39519,2067,27444,10008,10.62053212,0.555495834,7.375436711,2.68959957,3721,37329,21335,10.03198065,5.733673744,43.18195064,-85.27723954,513.1428571,89.85714286,1,5.857142857,0.714285714,2.714285714,232.2857143,253,525.8571429,58,No
Grosse Ile Township Schools,22956,605,15763,6588,12.10121244,0.318924618,8.309435952,3.472851871,1897,22022,13006,11.60885609,6.856088561,42.12762087,-83.1479025,524.6666667,92.66666667,1.333333333,2.666666667,2.333333333,1,112.6666667,391,513.6666667,25.66666667,No
Grosse Pointe Public Schools,106132,1050,67734,37348,13.23011718,0.130890052,8.443530292,4.655696834,8022,107107,65160,13.35165794,8.122662678,42.41198829,-82.91050001,595.5714286,74,16.71428571,3.214285714,1.857142857,4.285714286,114,455.4285714,585.9285714,21.78571429,No
Gull Lake Community Schools,38468,633,25597,12238,12.25876354,0.201720841,8.157106437,3.899936265,3138,35096,19002,11.18419375,6.055449331,42.38272068,-85.39532447,414.6666667,84.16666667,4.833333333,3.5,1,6.666666667,87.66666667,327,434.1666667,31.16666667,No
Gwinn Area Community Schools,11399,969,7339,3091,10.97112608,0.932627526,7.063522618,2.974975938,1039,11724,7433,11.28392685,7.153994225,46.29761773,-87.414481,340,82.66666667,1.333333333,4.333333333,0.333333333,11.33333333,221,105.3333333,353.6666667,72,No
Hagar Township S/D #6,659,26,542,91,8.558441558,0.337662338,7.038961039,1.181818182,77,602,447,7.818181818,5.805194805,42.1738191,-86.388311,74,69,15,5,0,11,56,23,83,72,No
Hale Area Schools,4946,563,552,3831,11.91807229,1.356626506,1.330120482,9.231325301,415,4412,2113,10.6313253,5.091566265,44.3804664,-83.8069693,129,94,2,1,0,3,79,30,122,75,No
Hamilton Community Schools,30263,526,20526,9211,11.42862538,0.198640483,7.751510574,3.47847432,2648,27901,17400,10.53663142,6.570996979,42.70870008,-86.02108292,325.5,79.5,1.666666667,9.166666667,7.333333333,2.666666667,68.83333333,224.3333333,309.8333333,34.66666667,No
"Hamtramck, School District of the City of",36649,7336,24655,4658,12.31071549,2.464225731,8.281827343,1.564662412,2977,33014,18033,11.0896876,6.057440376,42.39756767,-83.0567529,453.6666667,49.83333333,20,0.333333333,28.33333333,2,458.3333333,22.5,485.1666667,93.5,Yes
Hancock Public Schools,8941,324,5486,3131,11.23241206,0.407035176,6.891959799,3.933417085,796,7946,4836,9.98241206,6.075376884,47.1376919,-88.5922294,387,98,0,1,0,1,107,183,334,45,No
Hanover-Horton School District,11290,395,8263,2632,10.01774623,0.350488021,7.331854481,2.335403727,1127,10935,6506,9.702750665,5.77284827,42.11067987,-84.5277176,369.6666667,94,1,3.333333333,0.333333333,1.666666667,114.6666667,242,372,35,No
Harbor Beach Community Schools,6065,368,3088,2609,11.93897638,0.724409449,6.078740157,5.135826772,508,5887,3316,11.58858268,6.527559055,43.8399892,-82.6576172,232,96,0,1,1,2,60,145,222,35,No
Harbor Springs School District,15325,234,957,14134,18.39735894,0.280912365,1.148859544,16.96758703,833,13850,7247,16.62665066,8.699879952,45.4352692,-84.98733217,210.5,87,0,2.5,0.5,9.75,32.5,150.5,191.5,21,No
Harper Creek Community Schools,31268,1118,19714,10436,11.52949853,0.412241888,7.269174041,3.848082596,2712,29405,17126,10.84255162,6.314896755,42.26543902,-85.15207836,541.6,86.2,2.4,4.2,1,6.6,205,319.4,558.6,45,No
"Harper Woods, The School District of the City of",21408,1749,16616,3043,11.77557756,0.962046205,9.139713971,1.673817382,1818,20850,12132,11.46864686,6.673267327,42.43575234,-82.92989832,316.2,6,92.2,0.6,0.2,1,216.8,85,311.2,74.4,Yes
Harrison Community Schools,15851,1859,8243,5749,11.28185053,1.323131673,5.866903915,4.091814947,1405,14369,8507,10.22704626,6.05480427,44.01750118,-84.80735695,342,94,1,2.25,0,2.75,258.25,82.75,355,77,No
Hart Public School District,16046,2077,8325,5644,11.56885364,1.497476568,6.002162942,4.069214131,1387,18429,8376,13.28695025,6.038932949,43.69798143,-86.3720449,671,66.66666667,1,27.33333333,2.333333333,2.666666667,246.6666667,408.6666667,677.3333333,52.66666667,No
Hartford Public Schools,14789,1559,10858,2372,10.97106825,1.15652819,8.054896142,1.759643917,1348,16658,7960,12.35756677,5.90504451,42.20854733,-86.16344913,396.6666667,41,2.333333333,50,1.333333333,5.666666667,301.6666667,81.33333333,415.6666667,80.66666667,Yes
Hartland Consolidated Schools,63076,1510,41667,19899,11.39172837,0.272710854,7.525194148,3.59382337,5537,59383,32827,10.7247607,5.92866173,42.63716194,-83.74861155,689.5,94.625,0.875,2.125,0.625,1.625,88.75,582.5,690.75,20.5,No
Haslett Public Schools,34590,517,21250,12823,12.6010929,0.188342441,7.741347905,4.67140255,2745,30655,15134,11.16757741,5.513296903,42.74594634,-84.40474516,542.2,78.4,3.6,7,5,6.4,109.4,412.2,538.4,24.8,No
Hastings Area School District,28763,1367,19492,7904,10.75252336,0.511028037,7.286728972,2.954766355,2675,26241,15665,9.809719626,5.856074766,42.64134753,-85.2853253,450,78.83333333,9.666666667,6.333333333,0.166666667,5.166666667,183.6666667,231.8333333,443.3333333,50.16666667,No
"Hazel Park, School District of the City of",46084,1721,28801,15562,14.25425302,0.53232292,8.90844417,4.813485926,3233,42823,25806,13.24559233,7.982060006,42.46153025,-83.09864351,236.25,55.75,38.75,2.375,0.5,2.375,202.625,69.25,282.25,72.625,No
Hemlock Public School District,12888,385,8626,3877,10.58997535,0.316351684,7.087921118,3.185702547,1217,11839,6672,9.728019721,5.482333607,43.42177066,-84.22736184,230.2,94.4,0.2,4.6,0.2,0.8,65.4,156.6,232,31.8,No
Hesperia Community Schools,11286,753,8305,2228,11.49287169,0.766802444,8.457230143,2.268839104,982,10779,6931,10.97657841,7.058044807,43.5663954,-86.0360833,358,93,0,6,0,1,295,102,428,76,No
Hillman Community Schools,5474,390,2228,2856,11.52421053,0.821052632,4.690526316,6.012631579,475,5084,2854,10.70315789,6.008421053,45.06677505,-83.90371825,233,94.5,0.5,1.5,0.5,2.5,104,93,218.5,57.5,No
Hillsdale Community Schools,13462,1040,9263,3159,10.0612855,0.777279522,6.923019432,2.360986547,1338,15432,8308,11.53363229,6.209267564,41.9215926,-84.63834833,325.25,91.75,2.25,3.5,0.75,1.75,180.25,125.75,334.5,70.25,No
Holland City School District,53874,3710,26045,24119,14.52912621,1.000539374,7.024002157,6.504584682,3708,53464,28181,14.41855448,7.600053937,42.77604922,-86.11345154,703.8,36,8.8,47,2.6,5.4,360.6,199,624.4,72.8,Yes
Holly Area School District,43889,2826,25527,15536,13.08947211,0.842827319,7.613182225,4.633462571,3353,39392,22315,11.74828512,6.655234119,42.77743147,-83.60414582,518,88,1.333333333,6.5,0.666666667,3.5,200.6666667,309.6666667,545.8333333,45.83333333,No
Holt Public Schools,68913,1943,46206,20764,12.19051831,0.343711304,8.173713073,3.673093932,5653,63567,35603,11.24482576,6.29807182,42.63974235,-84.55521897,538.1,68.8,8.6,11.5,2.8,8.5,192.8,315.5,534.9,42.2,No
Holton Public Schools,9866,769,6787,2310,11.27542857,0.878857143,7.756571429,2.64,875,9145,4843,10.45142857,5.534857143,43.4160287,-86.0831595,231.6666667,90.66666667,0.666666667,2,1,5.666666667,137,69,219.3333333,65.33333333,No
Homer Community School District,12197,1184,8654,2359,11.46334586,1.112781955,8.133458647,2.217105263,1064,11873,6706,11.15883459,6.302631579,42.1419743,-84.8099558,312,95,0,3,1,2,122,170,315,46,No
Hopkins Public Schools,18298,571,13262,4465,11.25338253,0.351168512,8.156211562,2.74600246,1626,15822,8889,9.730627306,5.466789668,42.65639,-85.7604109,409.3333333,93.33333333,1.333333333,2.666666667,0,2.666666667,121.6666667,262,417.3333333,37.66666667,No
Houghton Lake Community Schools,15451,2082,5079,8290,11.70530303,1.577272727,3.847727273,6.28030303,1320,15351,8351,11.62954545,6.326515152,44.2963164,-84.72731615,407,95.5,1.5,2,0.5,1,144.5,232,399.5,40.5,No
Houghton-Portage Township School District,14742,431,9802,4509,10.8797048,0.318081181,7.233948339,3.327675277,1355,13109,8096,9.674538745,5.974907749,47.111921,-88.57062665,373,83.5,5,5,3.5,3.5,141.5,373.5,545,31.5,No
Howell Public Schools,81699,1891,48713,31095,11.18857847,0.258970145,6.671185976,4.25842235,7302,77948,43926,10.67488359,6.015612161,42.60555288,-83.92675079,797.3333333,91.77777778,0.666666667,3.555555556,1.222222222,3.111111111,223.4444444,554.2222222,821.7777778,34.55555556,No
Hudson Area Schools,10628,593,7328,2707,11.36684492,0.634224599,7.837433155,2.895187166,935,10388,6175,11.11016043,6.604278075,41.8654533,-84.34948075,341,81.5,2,12,1,3.5,145.5,133,305.5,56,No
Hudsonville Public School District,72141,474,50018,21649,11.17252594,0.073408704,7.746321821,3.352795416,6457,84298,41909,13.05528883,6.490475453,42.86876284,-85.8720488,567.7,88.3,1.7,5.9,1.6,2.9,107.9,458.8,589.3,24.9,No
Huron School District,29679,922,20467,8290,11.69385343,0.363278172,8.064223798,3.266351458,2538,27702,15878,10.91489362,6.256107171,42.13325813,-83.3563049,625.5,90.5,2.25,4,0.75,3,198.75,577.5,809.75,29,No
Huron Valley Schools,117303,2201,72848,42254,12.45386984,0.233676611,7.734154369,4.486038858,9419,114536,56063,12.16010192,5.952118059,42.61873326,-83.56767566,608.9285714,90.07142857,1.428571429,4.785714286,1.142857143,2.857142857,164.2857143,440.2857143,625.2142857,34.5,No
Ida Public School District,13979,285,11587,2107,9.515997277,0.19400953,7.887678693,1.434309054,1469,14634,8205,9.961878829,5.585432267,41.90675133,-83.56982497,478,97,0.333333333,1.333333333,0.333333333,0.666666667,84.66666667,385,486.3333333,21,No
Imlay City Community Schools,23124,1335,15909,5880,11.14946962,0.643683703,7.670684667,2.835101254,2074,21038,11338,10.1436837,5.466730955,43.0151699,-83.0822226,403.4,73.6,2,20.2,0.4,4,213.8,160.4,410.2,63.6,No
Inland Lakes Schools,8706,537,2443,5726,11.42519685,0.704724409,3.206036745,7.514435696,762,12911,4845,16.94356955,6.358267717,45.41579475,-84.5841413,370.5,91,0.5,1.5,0.5,7,192,142,352.5,61,No
Ionia Public Schools,32044,1920,23459,6665,10.5096753,0.629714661,7.693998032,2.185962611,3049,29642,17438,9.721876025,5.719252214,42.9858207,-85.04443286,378.1428571,85.57142857,0.714285714,10.42857143,0.285714286,3.285714286,166.5714286,140.5714286,328.4285714,62.42857143,No
Iron Mountain Public Schools,9656,242,5694,3720,10.8372615,0.271604938,6.390572391,4.175084175,891,10763,5061,12.07968575,5.68013468,45.81967215,-88.06076462,409.25,84,3.5,6.75,1.25,5.25,126.75,114.5,256.5,52.75,No
Ironwood Area Schools of Gogebic County,8905,978,5242,2685,11.24368687,1.234848485,6.618686869,3.390151515,792,8576,5173,10.82828283,6.531565657,46.45799735,-90.15668035,399,87,1.5,1.5,0,10,220.5,152.5,399,72.5,No
Ishpeming Public School District No. 1,9017,329,5758,2930,11.54545455,0.421254802,7.372599232,3.751600512,781,14674,4885,18.78873239,6.254801536,46.49410367,-87.6646607,255.6666667,91,2,1.666666667,0.666666667,5,117.6666667,115,249.3333333,53.33333333,No
Ithaca Public Schools,13007,575,9246,3186,9.39133574,0.415162455,6.675812274,2.300361011,1385,12456,7334,8.993501805,5.295306859,43.2939164,-84.60139343,411.3333333,81.66666667,1.333333333,12.33333333,0.333333333,5.333333333,193,184,400,58,No
Jackson Public Schools,63863,8151,37072,18640,12.32876448,1.573552124,7.156756757,3.598455598,5180,61300,35646,11.83397683,6.881467181,42.24249492,-84.4189043,395.4615385,47.30769231,33.84615385,6.384615385,1.384615385,11.07692308,265,86.38461538,369.9230769,82.69230769,Yes
Jefferson Schools (Monroe),21443,631,7675,13137,11.5409042,0.339612487,4.130785791,7.07050592,1858,23140,12991,12.45425188,6.991926803,41.96376955,-83.30585518,513.5,88.5,1.5,5.25,2,2.75,210.25,299.5,546.5,50,No
Jenison Public Schools,59666,2192,38936,18538,12.33278214,0.453079785,8.0479537,3.831748656,4838,56871,33959,11.75506408,7.019222819,42.90986076,-85.82659136,579.625,84.875,1.625,7.25,2.25,4.375,131.75,424.625,605.125,31.25,No
Johannesburg-Lewiston Area Schools,8248,525,1525,6198,11.40802213,0.726141079,2.109266943,8.572614108,723,7291,4312,10.08437068,5.964038728,44.9809626,-84.4538893,233,99,0,1,0,0,81,119,221,46,No
Jonesville Community Schools,17994,742,11791,5461,12.1417004,0.500674764,7.956140351,3.68488529,1482,16651,9280,11.23549258,6.261808367,41.9798218,-84.65477917,467,95.33333333,0.333333333,2.333333333,0.333333333,1.666666667,200,223,468.6666667,50.66666667,No
Kalamazoo Public Schools,166913,16947,96410,53556,13.23026316,1.34329423,7.641883323,4.245085606,12616,182038,83582,14.4291376,6.625079264,42.28392169,-85.59762089,543.6666667,36.08333333,41.5,12,2.166666667,8.458333333,334.5833333,162.5416667,527.375,71.875,Yes
Kaleva Norman Dickson School District,6369,579,2382,3408,12.48823529,1.135294118,4.670588235,6.682352941,510,5632,3019,11.04313725,5.919607843,44.3031376,-86.0227158,154,91,3,3,0,3,97,39,151,74,No
Kalkaska Public Schools,18900,1919,7950,9031,11.96202532,1.214556962,5.03164557,5.715822785,1580,17998,9900,11.39113924,6.265822785,44.75590826,-85.20553254,299.8,95.2,0.8,2.4,0.2,1.6,158.8,112.6,291,63.8,No
Kearsley Community School District,30907,1863,25087,3957,10.07398957,0.607235984,8.176988266,1.289765319,3068,30675,18903,9.998370274,6.161342894,43.06461018,-83.60214468,605.2,82.8,7.6,5.2,0.4,4.2,396.2,175.4,613.2,73,No
Kelloggsville Public Schools,26851,2795,16194,7862,11.9817046,1.247211066,7.226238286,3.508255243,2241,28759,13432,12.83311022,5.993752789,42.87524542,-85.6645146,360.8333333,37.33333333,22.16666667,30.33333333,5.166666667,5.166666667,286.5,63,383.6666667,84.66666667,Yes
Kenowa Hills Public Schools,38233,2827,18444,16962,11.72431769,0.86691199,5.655933763,5.201471941,3261,35980,20866,11.03342533,6.398650721,43.0339227,-85.7462452,693.6666667,74.33333333,3.666666667,16,1.333333333,5,288.6666667,308.6666667,642.3333333,56.33333333,No
Kent City Community Schools,16304,1275,11128,3901,12.43630816,0.972540046,8.488176964,2.975591152,1311,15415,8417,11.75819985,6.420289855,43.22470437,-85.75294193,421,79.33333333,0.333333333,17.66666667,1,1.666666667,229.6666667,161.6666667,428.6666667,60.66666667,No
Kentwood Public Schools,104428,8044,59562,36822,11.72162981,0.902907173,6.685598833,4.133123807,8909,103138,59023,11.57683242,6.625098215,42.85905827,-85.62528608,510.5294118,37.41176471,30.64705882,13.35294118,11.94117647,6.823529412,321.7647059,162.4117647,528.8235294,74.58823529,Yes
Kingsley Area Schools,14077,675,10647,2755,9.878596491,0.473684211,7.471578947,1.933333333,1425,13254,8689,9.301052632,6.09754386,44.58007505,-85.53659855,474.5,95.5,0.5,1.5,0.5,1.5,211,264,504,47.5,No
Kingston Community School District,6774,456,5159,1159,10.27921093,0.691957511,7.828528073,1.758725341,659,6310,3499,9.575113809,5.309559939,43.4103451,-83.1902815,331.5,100,0,0,0,0,147.5,121,294,59,No
L'Anse Creuse Public Schools,129749,6509,82262,40978,12.00490377,0.602239082,7.611213916,3.791450777,10808,128688,70410,11.90673575,6.514618801,42.60820749,-82.85258774,589.8333333,73.44444444,15.77777778,3.722222222,0.944444444,6.277777778,197.3333333,352.7222222,575.5555556,44.27777778,No
Laingsburg Community Schools,11775,259,8766,2750,10.46666667,0.230222222,7.792,2.444444444,1125,10851,6369,9.645333333,5.661333333,42.8912307,-84.35004393,373.6666667,94.33333333,0,3.666666667,0.333333333,2,80,272.6666667,377,27.33333333,No
Lake City Area School District,11667,896,7009,3762,10.34308511,0.794326241,6.213652482,3.335106383,1128,11546,6855,10.2358156,6.07712766,44.33815925,-85.21105735,296,92,1,3,0.5,3.5,166.5,120.5,314.5,62,No
Lake Fenton Community Schools,21968,479,15106,6383,10.8968254,0.237599206,7.493055556,3.166170635,2016,20491,11416,10.16418651,5.662698413,42.8482935,-83.73642407,513,92.33333333,1.666666667,3,0.666666667,2.333333333,138.3333333,378.3333333,533,29.33333333,No
Lake Orion Community Schools,95157,1877,62917,30363,12.48779528,0.246325459,8.256824147,3.984645669,7620,89332,52113,11.72335958,6.838976378,42.76338111,-83.25883781,639.5454545,81.54545455,4.181818182,7.454545455,2.272727273,4.545454545,125.1818182,510.9090909,661.4545455,29.54545455,No
Lake Shore Public Schools (Macomb),45111,3231,32790,9090,12.15929919,0.870889488,8.838274933,2.450134771,3710,44276,23599,11.93423181,6.360916442,42.52533428,-82.8861205,606.5,79.33333333,12.83333333,1.666666667,1.666666667,4.666666667,237.5,322.1666667,592.6666667,50,No
Lakeshore School District (Berrien),31829,660,19301,11868,11.51139241,0.238698011,6.980470163,4.292224231,2765,33466,17057,12.1034358,6.168896926,42.02075436,-86.49179582,520.4,77.8,3.8,10.6,3.6,4.6,153.6,380.6,558.8,33.2,No
Lakeview Community Schools (Montcalm),13451,935,8059,4457,11.61571675,0.807426598,6.959412781,3.848877375,1158,13984,6761,12.07599309,5.83851468,43.43229867,-85.26085667,948,70,7,9.333333333,5.666666667,8,414.3333333,495,979.6666667,53.33333333,No
Lakeview Public Schools (Macomb),45580,1518,34769,9293,11.10623782,0.369883041,8.471978558,2.264376218,4104,42429,27178,10.33845029,6.622319688,42.49030637,-82.90635772,647.3333333,79,8.5,4.333333333,3,5.5,230.8333333,375.3333333,652,46.66666667,No
Lakeview Sch. District (Calhoun),44533,1914,30020,12599,11.00667326,0.473059812,7.419673752,3.113939694,4046,42834,24321,10.58675235,6.011122096,42.29246267,-85.21420197,674.6666667,63.66666667,10.33333333,9.5,7.833333333,9,308.1666667,330.3333333,694.5,57.33333333,No
Lakewood Public Schools,20547,733,14494,5320,10.83702532,0.386603376,7.644514768,2.805907173,1896,18215,10162,9.607067511,5.359704641,42.754595,-85.13394093,496.6666667,84.66666667,1.666666667,9,0.666666667,3.666666667,184.6666667,320.6666667,551,42,No
Lamphere Public Schools,38451,2334,17790,18327,14.20428519,0.862209088,6.571850757,6.770225342,2707,36696,21582,13.55596601,7.972663465,42.51323093,-83.10512032,437.6666667,77.66666667,7.5,4.333333333,5,5.833333333,193.3333333,198,410.1666667,55,No
Lansing Public School District,163565,26114,85059,52392,14.70908273,2.348381295,7.649190647,4.711510791,11120,157701,77724,14.1817446,6.989568345,42.71278822,-84.55695439,384.2222222,27.66666667,38.18518519,19.37037037,4.407407407,10.40740741,275.037037,89.74074074,382.4814815,77.66666667,Yes
Lapeer Community Schools,55632,2962,40767,11903,10.63912794,0.566456301,7.79632817,2.276343469,5229,54285,31290,10.3815261,5.983935743,43.04892433,-83.32171352,573,92.33333333,0.777777778,2.777777778,0.555555556,3.444444444,234.2222222,268.1111111,543,54.33333333,No
Lawrence Public Schools,7027,462,4666,1899,11.11867089,0.731012658,7.382911392,3.004746835,632,6204,3960,9.816455696,6.265822785,42.2201309,-86.0597686,322,64,1,33,0,2,200,75,295,75,No
Lawton Community School District,11335,620,7507,3208,11.3919598,0.623115578,7.544723618,3.224120603,995,11682,5607,11.74070352,5.635175879,42.1690689,-85.83632733,260.6666667,81.33333333,2.333333333,13,1,3,116,112.3333333,247,58.66666667,No
Leland Public School District,7618,908,1195,5515,16.03789474,1.911578947,2.515789474,11.61052632,475,6963,3833,14.65894737,8.069473684,45.0241732,-85.7558365,454,80,1,16,1,2,149,324,511,37,No
Les Cheneaux Community Schools,3608,165,214,3229,15.75545852,0.720524017,0.934497817,14.10043668,229,3160,1753,13.79912664,7.655021834,45.9982121,-84.357009,227,64,3,1,0,32,80,131,234,44,No
Leslie Public Schools,15249,638,10227,4384,11.59619772,0.485171103,7.777186312,3.333840304,1315,13949,8104,10.60760456,6.162737643,42.45727663,-84.43743683,431,93,1,3.666666667,0.333333333,2.333333333,166.6666667,213.6666667,414.6666667,48,No
Lincoln Consolidated School District,51087,2348,32834,15905,12.60473723,0.579323958,8.101159635,3.924253639,4053,47643,23240,11.7549963,5.73402418,42.1617938,-83.60803204,670.2,51.8,34.8,4.8,2,6.4,322,259.2,612,60.4,No
"Lincoln Park, School District of the City of",62511,5604,40225,16682,12.84120789,1.151191454,8.263147083,3.426869351,4868,60947,35083,12.51992605,7.206861134,42.24252974,-83.18184572,528.4444444,44.55555556,11.22222222,39.33333333,0,4.888888889,430.8888889,69.77777778,529.8888889,86.88888889,Yes
Linden Community Schools,29578,750,22059,6769,10.38553371,0.263342697,7.745435393,2.376755618,2848,28072,17303,9.856741573,6.075491573,42.80739866,-83.8037539,566.6,90.8,0.8,4.8,0,3.4,146.2,356,531.8,36.4,No
Litchfield Community Schools,3760,905,1850,1005,15.16129032,3.649193548,7.459677419,4.052419355,248,3471,1747,13.99596774,7.044354839,42.046161,-84.7578741,144,93,0,3,0,4,79,51,140,64,No
Livonia Public Schools School District,191932,3840,118677,69415,13.33787352,0.266851981,8.247185546,4.823835997,14390,222858,100758,15.48700486,7.001945796,42.38460757,-83.37000066,585.4347826,72.95652174,10.65217391,6.086956522,5.782608696,4.826086957,180.3043478,387.4782609,591.7826087,41.26086957,No
Lowell Area Schools,42136,854,28473,12809,11.03036649,0.223560209,7.453664921,3.353141361,3820,45293,22139,11.85680628,5.795549738,42.9411576,-85.36029086,533.2857143,90.71428571,3,3,0.714285714,3,134,378.1428571,545.8571429,34,No
Ludington Area School District,23104,1150,5021,16933,10.61276987,0.528249885,2.306384933,7.778135048,2177,22788,13878,10.46761599,6.374827745,43.95997746,-86.4409034,431,82.4,1.8,10,1.2,4.8,200.2,210.8,430.8,53.6,No
Mackinac Island Public Schools,2002,42,236,1724,26,0.545454545,3.064935065,22.38961039,77,1767,1029,22.94805195,13.36363636,45.8477222,-84.6241625,73,70,4,6,1,19,11,56,67,16,No
Mackinaw City Public Schools,2441,54,202,2185,15.95424837,0.352941176,1.320261438,14.28104575,153,2323,1652,15.18300654,10.79738562,45.7810077,-84.7446513,159,83,3,3,1,9,64,73,145,50,No
Madison District Public Schools,19145,1340,12637,5168,13.21256039,0.924775707,8.721187026,3.566597654,1449,16752,8336,11.5610766,5.752933057,42.48844646,-83.0986224,338,60.6,24,12.4,0.8,2.4,192.4,142,353.8,60.6,No
Madison School District (Lenawee),17327,976,12232,4119,10.82261087,0.609618988,7.640224859,2.572767021,1601,16891,11471,10.55028107,7.164896939,41.868511,-84.022749,805,59,7,31,0,2,509,301,858,65,No
Mancelona Public Schools,11529,925,5455,5149,12.009375,0.963541667,5.682291667,5.363541667,960,10498,5346,10.93541667,5.56875,44.89945397,-85.06961467,311.3333333,95,0.333333333,2.333333333,0,2.333333333,208.6666667,89.66666667,324.3333333,72,No
Manchester Community Schools,15095,499,8073,6523,14.29450758,0.472537879,7.644886364,6.177083333,1056,14004,6566,13.26136364,6.21780303,42.1538967,-84.0386912,335,93,0,5,0,2,95,323,436,26,No
Manistee Area Public Schools,17265,963,8879,7423,11.16752911,0.622897801,5.743208279,4.801423027,1546,15395,8609,9.957956016,5.568564036,44.2387491,-86.32946827,468.6666667,68.66666667,20,2.666666667,1,8,224.3333333,216,480.6666667,59.33333333,No
Manistique Area Schools,9713,726,4508,4479,11.85958486,0.886446886,5.504273504,5.468864469,819,9555,4754,11.66666667,5.804639805,45.9587596,-86.2455078,394,76,0,0.5,0.5,23,217.5,139.5,392,66,No
Manton Consolidated Schools,10081,707,7450,1924,10.6227608,0.744994731,7.850368809,2.02739726,949,10801,5431,11.38145416,5.722866175,44.41292,-85.3967746,339.5,95,1,2.5,0,1.5,162.5,132.5,327.5,59,No
Maple Valley Schools,12071,952,8429,2690,11.52913085,0.909264565,8.050620821,2.569245463,1047,20399,5807,19.48328558,5.546322827,42.61335287,-85.05782857,330,94,1,2.666666667,0.666666667,2,177.3333333,150.6666667,347.3333333,58.33333333,No
Mar Lee School District,3219,190,1964,1065,10.6589404,0.629139073,6.503311258,3.526490066,302,3056,2019,10.1192053,6.685430464,42.3043817,-84.8837225,299,90,4,3,0,2,114,138,283,51,No
Marcellus Community Schools,8500,443,5101,2956,12.09103841,0.630156472,7.256045519,4.204836415,703,15070,3929,21.43669986,5.588904694,42.01913567,-85.86777053,229.6666667,88.66666667,3,5,0.333333333,3.666666667,129.3333333,81,230.6666667,74,No
Marion Public Schools,6025,673,3325,2027,12.0741483,1.348697395,6.663326653,4.062124248,499,5776,3769,11.5751503,7.553106212,44.10235905,-85.14210035,252,95.5,1.5,1.5,0.5,1,154.5,61.5,222.5,74,No
Marlette Community Schools,8887,653,6977,1257,9.798235943,0.719955899,7.692392503,1.385887541,907,8947,5630,9.864388093,6.207276736,43.32407565,-83.0718049,450,91,1,5,0,2.5,208.5,166,419.5,60.5,No
Marquette Area Public Schools,34110,1035,18111,14964,10.53753475,0.3197405,5.594995366,4.622798888,3237,33342,19231,10.30027804,5.940994748,46.53660089,-87.40413449,454.2857143,87.28571429,1,1.571428571,0.428571429,10.28571429,128,317.8571429,467.1428571,36.42857143,No
Marshall Public Schools,30820,1776,19797,9247,12.5590872,0.723716381,8.067237164,3.768133659,2454,27243,14952,11.10146699,6.092909535,42.28723742,-85.01229505,413.5,79.33333333,9.5,6.166666667,1.166666667,3.833333333,141,245.3333333,411.6666667,40.33333333,No
Martin Public Schools,6393,313,4162,1918,11.295053,0.553003534,7.35335689,3.38869258,566,5410,3382,9.558303887,5.975265018,42.53604535,-85.63800675,283.5,87,1,8.5,1,2.5,141,142.5,309,53,No
Marysville Public Schools,29072,560,19308,9204,10.49909715,0.202239075,6.97291441,3.323943662,2769,26810,15970,9.682195739,5.767425063,42.91456436,-82.4801618,530.8,91.4,1,4.4,0.4,2.4,198.6,330.6,552,44.6,No
Mason County Central Schools,14518,1056,8829,4633,11.13343558,0.809815951,6.770705521,3.55291411,1304,13097,7563,10.04371166,5.799846626,43.97080485,-86.2991673,253.25,92,1,4.5,0.75,2.25,123,109.5,254,54.5,No
Mason County Eastern Schools,5236,470,2382,2384,11.33333333,1.017316017,5.155844156,5.16017316,462,4712,3031,10.1991342,6.560606061,43.9537086,-86.2176589,254,90,4,4,0,2,160,54,230,77,No
Mason Consolidated Schools (Monroe),11385,557,8126,2702,10.29385172,0.503616637,7.347197107,2.443037975,1106,10904,6565,9.858951175,5.935804702,41.81153567,-83.49186667,647.6666667,77,5,13,0.666666667,3.666666667,179,298.6666667,507.6666667,42.66666667,No
Mason Public Schools (Ingham),34788,1009,23534,10245,10.98452794,0.318598042,7.431007262,3.23492264,3167,31328,19024,9.892011367,6.006946637,42.58900758,-84.45089304,705.4,82.6,3.4,9,1.4,3.8,174.6,423.2,629.2,33.2,No
Mattawan Consolidated School,39231,710,29700,8821,10.20577523,0.184703434,7.726326743,2.294745057,3844,46895,21088,12.19953174,5.485952133,42.21272517,-85.80129723,978.6666667,87,2,4,2,5,170.3333333,807,999.3333333,19.33333333,No
Mayville Community School District,7345,685,4888,1772,11.3875969,1.062015504,7.578294574,2.747286822,645,7202,4072,11.16589147,6.313178295,43.331713,-83.35190885,266.5,95,2,2,0.5,0.5,144,68,227.5,69,No
McBain Rural Agricultural Schools,10009,512,7345,2152,9.783968719,0.500488759,7.179863148,2.103616813,1023,9405,5575,9.193548387,5.449657869,44.1947574,-85.2093441,545,94,1,5,0,0,184,325,562,42,No
Melvindale-North Allen Park Schools,28915,2147,21752,5016,10.20649488,0.757853865,7.678079774,1.770561242,2833,28382,16845,10.0183551,5.945993646,42.2779396,-83.18873278,708.5,58.25,11,29.75,1,0.5,604.75,116,764,85.5,No
Memphis Community Schools,16135,567,5899,9669,18.56731876,0.652474108,6.788262371,11.12658228,869,9082,5489,10.45109321,6.316455696,42.89544895,-82.7776728,430,95,1.5,2.5,0,0.5,132.5,279.5,434.5,36,No
Mendon Community School District,6747,313,3896,2538,11.59278351,0.537800687,6.694158076,4.360824742,582,6487,3434,11.14604811,5.900343643,42.0121354,-85.45064005,289,90.5,3.5,2.5,1,2,115,140.5,269,49,No
Menominee Area Public Schools,14826,927,9779,4120,10.59756969,0.662616154,6.989992852,2.944960686,1399,15309,8958,10.9428163,6.403145104,45.13877983,-87.61995185,352.5,91.5,0.75,4.25,0.25,3.5,154,155,337,53.75,No
Meridian Public Schools,15660,716,9845,5099,11.80995475,0.539969834,7.424585219,3.845399698,1326,14896,7495,11.23378582,5.652337858,43.70944197,-84.36966183,443,97.66666667,1.333333333,0.333333333,0,0,192.6666667,231,443.3333333,48,No
Merrill Community Schools,7269,417,4940,1912,11.48341232,0.658767773,7.804107425,3.020537125,633,7809,3705,12.33649289,5.853080569,43.4085963,-84.3378166,192,91,0,7,0,2,66,140,216,35,No
Mesick Consolidated Schools,6978,620,4253,2105,11.1648,0.992,6.8048,3.368,625,6589,3957,10.5424,6.3312,44.4054771,-85.7111011,324,94,2,2,0,2,181,71,269,74,No
Michigan Center School District,14023,947,10815,2261,9.952448545,0.672107878,7.675656494,1.604684173,1409,14394,9215,10.21575586,6.540099361,42.23030203,-84.33521193,463,89.66666667,2,3,0,5.333333333,223,220.6666667,476,55.33333333,No
Mid Peninsula School District,2712,115,1111,1486,14.42553191,0.611702128,5.909574468,7.904255319,188,2227,1082,11.84574468,5.755319149,45.9848976,-87.1144332,184,96,0,0,1,3,80,61,156,61,No
Midland Public Schools,91236,2262,51858,37116,11.83653347,0.293461339,6.727815257,4.815256876,7708,93515,51850,12.13220031,6.726777374,43.63729223,-84.23025477,712.4,86.6,2.3,4.6,4.2,2.8,188.1,437.9,654.9,35.9,No
Milan Area Schools,30592,1560,17840,11192,13.86135025,0.706841867,8.083371092,5.07113729,2207,28296,12105,12.82102401,5.484821024,42.08549205,-83.69071693,516,85.5,5.5,4.25,0.5,4,142.25,347.25,516,33.5,No
Millington Community Schools,12421,668,9739,2014,10.17280917,0.547092547,7.976248976,1.649467649,1221,11456,6795,9.382473382,5.565110565,43.2785211,-83.5215397,378,96,2,1,0.5,0.5,192.5,182,392.5,53,No
Mio-AuSable Schools,5831,611,2619,2601,11.08555133,1.161596958,4.979087452,4.94486692,526,5881,3778,11.18060837,7.182509506,44.6531804,-84.1443072,231,97,0,1,0,1,153,47,215,78,No
Mona Shores Public School District,42900,1158,28031,13711,11.2039697,0.302428833,7.320710368,3.580830504,3829,39685,22657,10.36432489,5.91721076,43.18470652,-86.27493163,630.8333333,79,10.5,3.333333333,2,5.666666667,241,357,641.8333333,46.33333333,No
Monroe Public Schools,60080,3744,32916,23420,10.50900822,0.654888928,5.757565157,4.096554137,5717,61444,31979,10.74759489,5.593668008,41.92048185,-83.41525309,696.625,79.375,11.75,6.125,0.75,2,369.625,244.25,651.875,66.5,No
Montabella Community Schools,9702,764,5634,3304,12.25,0.964646465,7.113636364,4.171717172,792,8135,4558,10.27146465,5.755050505,43.46504245,-85.05674475,384,87.5,0,5,0.5,6.5,222.5,130.5,387,66.5,No
Montague Area Public Schools,17939,1177,10022,6740,12.11276165,0.794733288,6.767049291,4.550979068,1481,16666,8923,11.25320729,6.02498312,43.42232108,-86.36031795,354.25,87,0.75,9,0.5,2.75,167.25,192,380,49.75,No
Montrose Community Schools,15512,1432,11675,2405,10.69793103,0.987586207,8.051724138,1.65862069,1450,14626,8131,10.08689655,5.607586207,43.1803557,-83.8876718,342.3333333,91,2.333333333,3.666666667,0.333333333,2.666666667,180.6666667,148.6666667,349,57.66666667,No
Moran Township School District,1930,86,100,1744,20.53191489,0.914893617,1.063829787,18.55319149,94,1370,760,14.57446809,8.085106383,45.8701703,-84.8240132,94,44,3,0,0,53,45,40,93,57,Yes
Morenci Area Schools,7911,371,5583,1957,11.31759657,0.530758226,7.987124464,2.799713877,699,7903,4229,11.30615165,6.050071531,41.7216472,-84.20872665,329,88.5,1.5,7,0,3,186,102.5,331,70.5,No
Morley Stanwood Community Schools,12985,1310,8518,3157,11.0982906,1.11965812,7.28034188,2.698290598,1170,12141,7450,10.37692308,6.367521368,43.53691115,-85.4419647,450.5,92.5,2,3,0,2,259.5,154,446.5,64,No
Morrice Area Schools,5803,284,4178,1341,11.26796117,0.551456311,8.112621359,2.603883495,515,5812,3317,11.28543689,6.440776699,42.8416215,-84.1775637,264,96,1,1,0,3,126,123,273,55,No
Mount Clemens Community School District,20876,2536,7197,11143,18.26421697,2.21872266,6.296587927,9.748906387,1143,19412,8201,16.98337708,7.174978128,42.60213805,-82.8760067,345,23,63,5,0,9.5,328,57.5,401,83.5,Yes
Mt. Morris Consolidated Schools,21885,2370,16990,2525,10.56225869,1.143822394,8.19980695,1.218629344,2072,22767,12068,10.98793436,5.824324324,43.10021846,-83.70279416,263.25,57.75,27.375,6.25,0.125,8.5,191.25,38.125,244.5,81.375,No
Mt. Pleasant City School District,46242,1780,22011,22451,12.85214008,0.494719288,6.117565314,6.239855475,3598,41657,25598,11.57782101,7.11450806,43.59705694,-84.76718999,432.2857143,75.14285714,3.428571429,4.428571429,2.428571429,15,160.8571429,213.7142857,392.1428571,48.71428571,No
Munising Public Schools,7728,471,4286,2971,11.48291233,0.699851412,6.368499257,4.414561664,673,7269,4223,10.80089153,6.274888559,46.41719805,-86.66282605,325.5,80.5,0,2.5,0,17,138.5,154.5,308.5,50.5,No
"Muskegon, Public Schools of the City of",54696,7478,33895,13323,13.0042796,1.777936282,8.05872563,3.167617689,4206,55273,27112,13.14146457,6.446029482,43.23127863,-86.23256589,454.4285714,29.85714286,52.42857143,11.71428571,0,6.142857143,358.4285714,70.14285714,448.2857143,82.57142857,Yes
Napoleon Community Schools,14326,529,10137,3660,10.51835536,0.388399413,7.442731278,2.68722467,1362,13205,8370,9.695301028,6.145374449,42.17335115,-84.27247725,337.25,93.75,0.75,3.5,0.25,1.75,131.5,176,329,48.75,No
Negaunee Public Schools,16365,531,11438,4396,10.5105973,0.341040462,7.346178548,2.823378292,1557,16234,9682,10.42646114,6.218368658,46.5015558,-87.6124789,494,92,0.333333333,1.666666667,0.333333333,6,123,341.6666667,500.6666667,31.33333333,No
New Buffalo Area Schools,16499,399,1154,14946,27.04754098,0.654098361,1.891803279,24.50163934,610,14825,7002,24.30327869,11.47868852,41.78900715,-86.74320575,237,85,3,8,1.5,3,78,117.5,211,44,No
New Haven Community Schools,17227,683,8244,8300,13.42712393,0.532346064,6.425565082,6.469212783,1283,15210,6967,11.85502728,5.430241621,42.7249338,-82.7880278,471.5,70,18.5,4.5,1.5,5,158.5,160.5,346.5,53.5,No
New Lothrop Area Public Schools,9142,253,7437,1452,9.809012876,0.271459227,7.979613734,1.557939914,932,8825,5309,9.46888412,5.696351931,43.12010735,-83.9746989,462,99.5,0.5,0,0,0,112.5,329,450,26.5,No
Newaygo Public School District,17745,1246,10761,5738,11.02173913,0.773913043,6.683850932,3.563975155,1610,15955,10404,9.909937888,6.462111801,43.41513625,-85.79511443,398.25,86.5,1.5,8.75,1,2.5,228.5,139.25,393.5,66,No
NICE Community School District,12897,310,8033,4554,11.1953125,0.269097222,6.973090278,3.953125,1152,12962,8167,11.25173611,7.089409722,46.48087685,-87.72760965,567,93,1,2,0,4.5,189,374.5,597,37,No
Niles Community Schools,42248,4255,30211,7782,11.33870102,1.141975309,8.108158884,2.088566828,3726,43055,22685,11.55528717,6.088298443,41.83027686,-86.24927218,315.8,75,9,9,0.6,6.6,189.2,137.2,352.6,63.4,No
North Adams-Jerome Public Schools,3075,266,2190,619,10.11513158,0.875,7.203947368,2.036184211,304,3078,1893,10.125,6.226973684,41.965023,-84.5250969,165,92,0,4,2,3,80,55,150,63,No
North Branch Area Schools,24089,921,18895,4273,10.10444631,0.386325503,7.925755034,1.792365772,2384,22966,14312,9.633389262,6.003355705,43.22528498,-83.19025418,477,93.4,0.8,4.2,0,1.4,190.8,236.8,465,53.6,No
North Central Area Schools,4174,398,2719,1057,11.40437158,1.087431694,7.428961749,2.887978142,366,3991,2269,10.90437158,6.199453552,45.70151605,-87.55872155,182.5,96.5,1,2,0,1.5,68,88.5,182.5,51,No
North Dickinson County Schools,2939,176,1259,1504,10.64855072,0.637681159,4.561594203,5.449275362,276,2805,1577,10.16304348,5.713768116,46.0112792,-87.9599363,276,96,0,0,0,4,94,136,252,46,No
North Huron School District,6099,336,1251,4512,13.17278618,0.725701944,2.701943844,9.745140389,463,5296,2985,11.43844492,6.447084233,43.9403152,-83.0035552,449,92,0,4,1,3,201,193,417,54,No
North Muskegon Public Schools,10673,273,7962,2438,10.25264169,0.262247839,7.648414986,2.341978866,1041,10199,6208,9.797310279,5.963496638,43.2581621,-86.2683025,294,85,4,4,2,6,73,242,328,26,No
Northport Public School District,4331,403,384,3544,27.23899371,2.534591195,2.41509434,22.28930818,159,4131,2396,25.98113208,15.06918239,45.1284063,-85.6194043,164,70,1,6,1,23,84,43,145,70,No
Northview Public Schools,41264,1043,26389,13832,12.17586309,0.307760401,7.786662732,4.081439953,3389,41437,23418,12.22691059,6.910002951,43.04056417,-85.61970473,532.5,77.83333333,6.333333333,7.333333333,1.5,7.333333333,187.5,302.5,530,45.5,No
Northville Public Schools,99578,608,63993,34977,13.44558466,0.082095598,8.640696732,4.722792331,7406,92642,55922,12.50904672,7.550904672,42.42718275,-83.4887095,736.3,70.4,5.3,3.8,17.5,3.4,77.7,607.2,694.3,17.2,No
Northwest Community Schools,32792,1697,22457,8638,10.64675325,0.550974026,7.291233766,2.804545455,3080,31845,19559,10.33928571,6.350324675,42.31684706,-84.44373424,618.4,84,5,4.4,0.8,6.2,354.2,292,690.2,63.4,No
Norway-Vulcan Area Schools,7627,324,5083,2220,10.44794521,0.443835616,6.963013699,3.04109589,730,7122,4271,9.756164384,5.850684932,45.782724,-87.902297,214,96,1,1,0,2,80,125,223,44,No
Nottawa Community School,1272,175,751,346,9.709923664,1.335877863,5.732824427,2.641221374,131,1256,945,9.58778626,7.213740458,41.9196039,-85.4403491,134,99,1,0,1,0,35,70,119,41,No
Novi Community School District,92765,838,44364,47563,14.32000617,0.129360914,6.848410003,7.342235258,6478,105444,47356,16.27724606,7.310280951,42.47325932,-83.49528521,705.7777778,47.66666667,8.666666667,8.888888889,31.11111111,4,86.44444444,609.1111111,706,20.66666667,Yes
"Oak Park, School District of the City of",54621,4779,39715,10127,11.40551263,0.997911881,8.29296304,2.114637711,4789,48931,29117,10.21737315,6.079974943,42.46051826,-83.18261436,607.375,6,92.625,0.75,0.25,0.375,516,110.875,639.125,81.25,Yes
Oakridge Public Schools,21645,1521,16277,3847,10.55338859,0.741589469,7.936128718,1.875670405,2051,20853,11704,10.16723549,5.706484642,43.24795536,-86.10299764,404.8,84.2,2.6,7.6,0.4,5.4,225.8,135.6,394.2,67.8,No
Okemos Public Schools,56975,872,31171,24932,13.56870683,0.207668492,7.423434151,5.937604191,4199,58821,28829,14.00833532,6.865682305,42.69746936,-84.42780493,597.2857143,58.42857143,6.285714286,6.142857143,22.71428571,7,103.5714286,514.2857143,635.7142857,18.14285714,No
Olivet Community Schools,16187,534,11937,3716,10.712773,0.353408339,7.900066181,2.459298478,1511,20283,9531,13.42356056,6.307743216,42.4411838,-84.9192427,447.5,95,0.5,2.5,0.5,1.5,139.5,294,458.5,37,No
Onaway Area Community School District,7008,507,3027,3474,11.2128,0.8112,4.8432,5.5584,625,6321,4200,10.1136,6.72,45.344781,-84.2216863,235,92.5,0,2.5,0,5,126.5,95,237.5,59.5,No
Onekama Consolidated Schools,5708,283,1005,4420,13.3364486,0.661214953,2.348130841,10.3271028,428,5219,2545,12.19392523,5.946261682,44.3646739,-86.2019458,424,86,0,6,0,8,210,205,437,53,No
Onsted Community Schools,15692,1103,9555,5034,11.32178932,0.795815296,6.893939394,3.632034632,1386,14504,8610,10.46464646,6.212121212,41.99976855,-84.191575,407,91.5,1,4.5,0,3.5,107,250.5,386,35.5,No
Ontonagon Area School District,3973,296,1216,2461,12.65286624,0.942675159,3.872611465,7.837579618,314,3567,2015,11.35987261,6.417197452,46.8695137,-89.2975911,314,97,0,1,0,2,133,134,300,55,No
Orchard View Schools,29579,2404,19708,7467,11.47807528,0.932867676,7.647652309,2.897555297,2577,52076,15160,20.20799379,5.882809468,43.24839666,-86.18705828,490.2,69.4,13.2,9.4,0.6,8,354.2,137.2,524,74,No
Oscoda Area Schools,14524,1443,4344,8737,12.35034014,1.227040816,3.693877551,7.429421769,1176,14111,7003,11.99914966,5.954931973,44.423995,-83.38137825,579.5,89.5,1,5,0.5,4,367,170,579,70,No
Otsego Public Schools,24538,646,17139,6753,10.82877317,0.285083848,7.563548102,2.980141218,2266,22461,12584,9.912180053,5.553398058,42.44269553,-85.70693583,374.8333333,91.33333333,1.5,3.166666667,0.666666667,3.166666667,117,240,381.1666667,41.33333333,No
Ovid-Elsie Area Schools,16854,670,12331,3853,10.70775095,0.42566709,7.834180432,2.447903431,1574,16161,9312,10.26747141,5.91613723,43.04812603,-84.38311625,433.5,84.5,1.25,4,9,1.5,149.25,200.75,377.5,47.75,No
Owendale-Gagetown Area School District,1939,155,1126,658,12.2721519,0.981012658,7.126582278,4.164556962,158,1976,1110,12.50632911,7.025316456,43.7295356,-83.2647278,74,89,0,8,0,3,44,16,69,77,No
Owosso Public Schools,33196,2587,24438,6171,10.24251774,0.798210429,7.54026535,1.904041962,3241,31839,19863,9.823819809,6.128663993,42.99869995,-84.17001233,529.5,90.5,0.5,5.5,0.333333333,3.166666667,235.5,197.6666667,455.6666667,64.16666667,No
Oxford Community Schools,64613,2016,43663,18934,12.24890995,0.382180095,8.277345972,3.589383886,5275,59479,32776,11.27563981,6.213459716,42.83004455,-83.23401067,340.8333333,77.66666667,5,6.833333333,7,4.166666667,97.16666667,217,329.3333333,40.5,No
Parchment School District,21013,842,13272,6899,12.56758373,0.503588517,7.937799043,4.126196172,1672,21377,9933,12.78528708,5.940789474,42.33000097,-85.56215135,271,70.83333333,9.833333333,7.833333333,1.166666667,10.66666667,127.8333333,118.3333333,270,60.5,No
Paw Paw Public School District,24207,1027,16084,7096,10.95339367,0.464705882,7.277828054,3.210859729,2210,26030,12356,11.77828054,5.590950226,42.2327445,-85.90075258,377.75,87,3.25,7.25,0.75,2,154.25,204,375.25,49.5,No
Peck Community School District,3931,276,3097,558,10.68206522,0.75,8.41576087,1.516304348,368,3608,2159,9.804347826,5.866847826,43.2580763,-82.8097312,168,92,1,5,1,2,98,43,166,74,No
Pellston Public Schools,7135,673,1998,4464,13.64244742,1.286806883,3.820267686,8.535372849,523,6078,3688,11.62141491,7.051625239,45.5528402,-84.779832,252,77.5,1,1,0,20.5,136,88,245.5,65,No
Pennfield Schools,22737,995,17089,4653,10.4537931,0.457471264,7.857011494,2.139310345,2175,20917,11948,9.617011494,5.493333333,42.37408512,-85.1450328,430,84.2,4.2,4.2,0.6,7,197.6,221.2,446,52.4,No
Pentwater Public School District,3454,167,289,2998,12.8401487,0.620817844,1.074349442,11.14498141,269,3272,1992,12.16356877,7.405204461,43.7835354,-86.4245176,269,86,0,7,0,7,126,136,280,51,No
Perry Public Schools,13852,787,9728,3337,10.99365079,0.624603175,7.720634921,2.648412698,1260,17996,7040,14.28253968,5.587301587,42.83153265,-84.21431995,447.5,93.5,0,1,0.5,4,160,224.5,413.5,46.5,No
Pewamo-Westphalia Community Schools,7221,130,5148,1943,11.51674641,0.207336523,8.210526316,3.098883573,627,6703,3516,10.69059011,5.607655502,42.9427795,-84.8362096,179,83,1,13,1,2,61,100,176,43,No
Pickford Public Schools,5971,918,3570,1483,12.46555324,1.916492693,7.45302714,3.096033403,479,5785,2738,12.07724426,5.716075157,46.2216361,-84.3868063,237,58.5,1,1.5,1,37.5,111,108.5,241,65,No
Pinckney Community Schools,38570,546,23495,14529,11.98198198,0.169617894,7.298850575,4.513513514,3219,34375,18793,10.67878223,5.838148493,42.4686844,-83.90294533,454.3333333,94.33333333,0.333333333,2.333333333,0.333333333,2.333333333,89.66666667,294.6666667,396.3333333,25.66666667,No
Pinconning Area Schools,13323,887,9676,2760,10.28009259,0.68441358,7.466049383,2.12962963,1296,12681,7418,9.784722222,5.723765432,43.81456847,-83.96829917,337,92,1,4.333333333,0.333333333,2.666666667,159.3333333,148.6666667,339,56.33333333,No
Pine River Area Schools,10805,843,6954,3008,10.25142315,0.799810247,6.59772296,2.853889943,1054,10269,6314,9.74288425,5.990512334,44.0648292,-85.4890536,589,92,1,4,0,3,283,290,614,53,No
Pittsford Area Schools,5477,358,4471,648,9.558464223,0.62478185,7.802792321,1.130890052,573,5396,3700,9.417102967,6.457242583,41.8633155,-84.4710617,316,93,1,2,0,3,104,137,261,48,No
Plainwell Community Schools,29014,741,20967,7306,10.57361516,0.270043732,7.641034985,2.662536443,2744,27211,16138,9.91654519,5.881195335,42.4277776,-85.64245775,454,90.66666667,2,4.333333333,1,2,144,302,465,38.66666667,No
Plymouth-Canton Community Schools,193982,3324,124574,66084,11.19923792,0.191905779,7.192078979,3.815253161,17321,198633,102969,11.4677559,5.944749148,42.33946777,-83.4800816,765.0869565,71.82608696,9.739130435,4.217391304,9.869565217,4.565217391,156.826087,603.6956522,784.7391304,24.69565217,No
Pontiac City School District,65775,14248,15148,36379,15.46191819,3.349318289,3.560883874,8.551716032,4254,69672,28975,16.37799718,6.811236483,42.66935555,-83.27342235,567.1666667,9.666666667,49.33333333,34,3.833333333,3,504.6666667,66,581.3333333,88.83333333,Yes
Port Huron Area School District,91424,8393,63689,19342,10.22868651,0.93902439,7.125643321,2.164018796,8938,93692,55620,10.48243455,6.222868651,42.99494166,-82.46620103,544.625,75.4375,9.375,7.875,0.875,6.5625,243.1875,218.0625,482.6875,59.375,No
Portage Public Schools,102841,2124,60897,39820,11.86718209,0.245095777,7.027117471,4.594968844,8666,95096,51679,10.9734595,5.963420263,42.21377743,-85.60748341,611.6428571,73.71428571,5.785714286,5.714285714,6,8.714285714,151.1428571,448.5,629.0714286,32.92857143,No
Portland Public Schools,22178,914,15993,5271,10.77648202,0.444120505,7.771137026,2.56122449,2058,19880,11334,9.659863946,5.50728863,42.8718514,-84.91031728,539.25,87.5,5.25,2.25,3.25,2,133.25,345,507.5,32.25,No
Posen Consolidated School District No. 9,2754,170,1127,1457,11.92207792,0.735930736,4.878787879,6.307359307,231,2386,1507,10.32900433,6.523809524,45.2683982,-83.6974182,130,96,0,0,2,2,50,44,115,62,No
Potterville Public Schools,10139,569,6767,2803,11.49546485,0.645124717,7.672335601,3.178004535,882,10995,4791,12.46598639,5.431972789,42.6307664,-84.73531713,284,88,4.333333333,4.333333333,1.333333333,1.666666667,115,150.6666667,281.6666667,46,No
Powell Township Schools,1172,51,107,1014,31.67567568,1.378378378,2.891891892,27.40540541,37,1156,633,31.24324324,17.10810811,46.8176413,-87.7291053,35,97,0,0,0,3,19,15,37,59,No
Quincy Community Schools,12409,820,8869,2720,10.23000824,0.676009893,7.311624073,2.242374279,1213,16776,6904,13.83017312,5.691673537,41.94195425,-84.8794824,422,95,0,3,1,1.5,161.5,226,413.5,44.5,No
Rapid River Public Schools,4282,295,1955,2032,12.13031161,0.835694051,5.538243626,5.756373938,353,4218,2142,11.9490085,6.067988669,45.914282,-86.92664,349,81,1,1,0,17,142,190,355,46,No
Ravenna Public Schools,12642,438,8805,3399,11.58753437,0.401466544,8.070577452,3.115490376,1091,12685,6577,11.62694775,6.028414299,43.1903067,-85.9394334,349,90,1,7,0,1,151,166,343,52,No
Reading Community Schools,8442,656,5871,1915,10.67256637,0.829329962,7.422250316,2.420986094,791,7600,4354,9.608091024,5.504424779,41.8394897,-84.7450099,398,94,2,2,0.5,2.5,197.5,152,379.5,60,No
"Redford Union Schools, District No. 1",44822,2490,28216,14116,14.96560935,0.831385643,9.421035058,4.713188648,2995,41064,24789,13.71085142,8.276794658,42.42386828,-83.29878312,426,31,58.66666667,3.666666667,0.166666667,6.666666667,331.3333333,98.16666667,449.8333333,80.16666667,Yes
Reed City Area Public Schools,16449,1303,10717,4429,10.66731518,0.845006485,6.950064851,2.872243839,1542,14872,8900,9.64461738,5.771725032,43.86827023,-85.5133035,515.6666667,93,1,2.333333333,0.333333333,3.333333333,256.3333333,227,515.6666667,55,No
Reese Public Schools,9085,662,5940,2483,11.05231144,0.805352798,7.226277372,3.020681265,822,9416,5021,11.45498783,6.108272506,43.45445413,-83.68357263,274.3333333,88,1.333333333,6.333333333,1,3,122,129.3333333,265.3333333,51.33333333,No
Reeths-Puffer Schools,43506,1733,29391,12382,11.47612767,0.45713532,7.752835663,3.266156687,3791,42665,23262,11.25428647,6.136111844,43.2863897,-86.24457077,516.7142857,88,3.428571429,4.142857143,1.571428571,3,222.5714286,247.1428571,511.2857143,46.85714286,No
Republic-Michigamme Schools,2943,215,269,2459,20.87234043,1.524822695,1.907801418,17.43971631,141,2880,1572,20.42553191,11.14893617,46.3706781,-87.982887,136,95,1,0,0,4,56,43,110,61,No
Richmond Community Schools,16552,1019,9511,6022,11.13113652,0.68527236,6.396099529,4.049764627,1487,17075,8546,11.48285138,5.747141896,42.80643633,-82.7590426,488.6666667,90.66666667,0.666666667,5,0,4.333333333,130.3333333,314.3333333,472.3333333,33.66666667,No
"River Rouge, School District of the City of",26369,4939,13177,8253,15.068,2.822285714,7.529714286,4.716,1750,23471,10740,13.412,6.137142857,42.2704013,-83.13549068,447.25,7,76.75,9.75,0,7,414.25,116.75,537.25,79.5,Yes
River Valley School District,9518,523,874,8121,16.90586146,0.928952043,1.552397869,14.42451155,563,9057,4522,16.08703375,8.031971581,41.83620933,-86.60981577,191.3333333,89.66666667,0.333333333,4.666666667,0.666666667,5,93.66666667,86,192.3333333,58,No
Riverview Community School District,27729,839,22983,3907,10.00685673,0.30277878,8.294117647,1.409960303,2771,27390,16214,9.884518224,5.851317214,42.17574044,-83.19382808,550.2,82.2,6.2,8.6,1.2,2.2,187.4,332.8,556.6,42,No
Rochester Community School District,194327,2051,125504,66772,12.90351926,0.136188579,8.333598938,4.43373174,15060,169769,102387,11.27284197,6.798605578,42.68565617,-83.15426444,717.1428571,75.9047619,4.19047619,4.761904762,11.80952381,3.333333333,106.7619048,598.4285714,721.9047619,20.85714286,No
Rockford Public Schools,91595,1121,60698,29776,11.60605677,0.142042575,7.691079574,3.772934617,7892,98205,49175,12.44361379,6.230993411,43.09852488,-85.53983261,573.7692308,89.15384615,0.923076923,4.230769231,1.153846154,4.538461538,100.6923077,460.6153846,576.3076923,22.69230769,No
Rogers City Area Schools,5818,366,3092,2360,10.73431734,0.675276753,5.704797048,4.354243542,542,5633,3514,10.39298893,6.483394834,45.4166884,-83.8245615,322,95,1,1,0,2,153,139,336,59,No
Romeo Community Schools,60456,1374,40503,18579,11.61945032,0.264078416,7.784547377,3.570824524,5203,56147,33059,10.79127426,6.353834326,42.76452107,-83.01859969,661.2857143,85.42857143,2,8.571428571,0.714285714,3.142857143,184.8571429,451.4285714,659.5714286,36,No
Romulus Community Schools,41447,3639,20134,17674,13.8018648,1.211788212,6.704628705,5.885447885,3003,43706,18503,14.55411255,6.161505162,42.2245963,-83.37985857,482.1666667,22.33333333,70.5,3.833333333,0.333333333,3.166666667,318.1666667,89.66666667,437,80,Yes
Roseville Community Schools,56827,4785,37379,14663,11.54316474,0.971968312,7.592728011,2.978468414,4923,58868,31437,11.95774934,6.385740402,42.50029511,-82.93977231,374.3333333,61.55555556,27,2.444444444,1.777777778,7.444444444,239.7777778,117.7777778,373.6666667,69.22222222,No
Royal Oak Schools,72725,1156,31191,40378,14.9363319,0.237420415,6.406038201,8.29287328,4869,61516,33186,12.63421647,6.815773259,42.50892201,-83.14856452,529,78.22222222,9.444444444,4.666666667,1.222222222,6.555555556,116.2222222,411.5555556,547.3333333,29.55555556,No
Rudyard Area Schools,8271,1262,4833,2176,11.93506494,1.821067821,6.974025974,3.13997114,693,7592,3961,10.95526696,5.715728716,46.2035767,-84.7455817,684,61,4,1,1,34,352,199,608,67,No
"Saginaw, School District of the City of",81874,17348,52853,11673,12.88137193,2.729389553,8.315449969,1.83653241,6356,76641,43933,12.05805538,6.912051605,43.42769899,-83.95706665,388.875,20.875,62.4375,12.875,1.8125,2,276.75,70.25,355.875,82.6875,Yes
Saginaw Township Community Schools,49226,2126,32505,14595,9.980940795,0.431062449,6.590632603,2.959245742,4932,48065,28963,9.745539335,5.872465531,43.4362163,-84.00561534,598.875,60.875,16.625,14.625,3.75,4.375,243.875,315.375,597.125,51.75,No
Saline Area Schools,72212,456,40377,31379,13.61976613,0.086005281,7.61542814,5.918332705,5302,68876,36625,12.9905696,6.907770653,42.18098989,-83.77089849,701,89.57142857,1.714285714,1.428571429,3.571428571,3.857142857,86.14285714,579,683.1428571,22.71428571,No
Sand Creek Community Schools,9176,343,7244,1589,10.25251397,0.383240223,8.093854749,1.775418994,895,8907,5613,9.951955307,6.27150838,41.8203107,-84.1024474,442.5,91.5,0,5.5,0,2.5,174,225.5,440.5,49.5,No
Sandusky Community School District,11032,781,7388,2863,10.64864865,0.753861004,7.131274131,2.763513514,1036,10116,5932,9.764478764,5.725868726,43.41172435,-82.82564395,516.5,95.5,0,3,0.5,1,232.5,251,527.5,52,No
Saranac Community Schools,10983,397,7591,2995,10.8527668,0.39229249,7.500988142,2.959486166,1012,16503,6105,16.30731225,6.032608696,42.9246588,-85.2026349,491.5,91.5,1,4.5,0.5,2.5,155.5,250.5,455.5,44,No
Saugatuck Public Schools,11500,219,2230,9051,13.52941176,0.257647059,2.623529412,10.64823529,850,9854,5684,11.59294118,6.687058824,42.649868,-86.20176645,316,90,0,7,0,3,93,214,321.5,33,No
Sault Ste. Marie Area Schools,23963,1728,15334,6901,10.59372237,0.763925729,6.778956676,3.050839965,2262,28925,12666,12.78735632,5.599469496,46.46114033,-84.33416008,401,64.83333333,1.5,3.833333333,1.333333333,28.5,193,189.8333333,408.5,58.66666667,No
Schoolcraft Community Schools,12083,210,8174,3699,11.31367041,0.196629213,7.653558052,3.463483146,1068,10995,6202,10.29494382,5.807116105,42.11983473,-85.6293134,349.6666667,90,1,4.666666667,1,3,75.33333333,263.3333333,357.3333333,26.33333333,No
Unionville-Sebewaing Area S.D.,8993,396,5321,3276,11.75555556,0.517647059,6.955555556,4.282352941,765,7700,4201,10.06535948,5.491503268,43.6953174,-83.4615209,158,94,0,5,0,1,59,88,160,45,No
Shelby Public Schools,15411,2268,8579,4564,11.46651786,1.6875,6.383184524,3.395833333,1344,14730,8534,10.95982143,6.349702381,43.59776197,-86.35607213,319,58.66666667,1,38.33333333,0,2.666666667,224,68,326.3333333,80,No
Shepherd Public Schools,19038,790,14425,3823,10.39759694,0.43145822,7.878208629,2.087930093,1831,18598,9714,10.1572911,5.305297652,43.5449018,-84.74564253,205.6666667,77,1.666666667,6.666666667,0,14.66666667,102.3333333,109.3333333,223.3333333,57.33333333,No
Sigel Township S/D #4F,300,21,129,150,10.71428571,0.75,4.607142857,5.357142857,28,223,163,7.964285714,5.821428571,43.8436789,-82.7921623,29,100,0,0,0,0,10,14,34,59,No
Sodus Township S/D #5,689,66,575,48,10.13235294,0.970588235,8.455882353,0.705882353,68,699,403,10.27941176,5.926470588,42.037498,-86.3970792,73,66,11,16,0,7,51,18,76,76,No
South Haven Public Schools,24935,1801,10059,13075,11.8456057,0.855581948,4.778622328,6.211401425,2105,30480,13117,14.47980998,6.231353919,42.4007855,-86.26200446,427.6,64.6,10.6,16.2,1.2,7,223.8,167.8,417,60,No
South Lake Schools,24882,1535,13835,9512,13.68646865,0.844334433,7.610011001,5.232123212,1818,29194,12153,16.05830583,6.684818482,42.45944954,-82.91081026,352.8,36.6,48.8,3.6,2.4,8.6,212.2,95.4,336.6,72.4,Yes
South Lyon Community Schools,103023,2992,66886,33145,12.79153216,0.371492426,8.30469332,4.115346412,8054,92757,45565,11.51688602,5.657437298,42.46515766,-83.6308529,704.5,86.2,3.2,5,3.1,2.9,104,552.4,668.6,18.3,No
South Redford School District,41593,1788,28934,10871,13.12496056,0.564215841,9.130325024,3.430419691,3169,40028,22089,12.63111392,6.970337646,42.377884,-83.29920493,429.1666667,22.83333333,67.33333333,3,1,5.666666667,251.1666667,135.5,418.3333333,67.33333333,Yes
Southfield Public School District,103349,5283,39496,58570,15.48763675,0.791697887,5.918777162,8.777161696,6673,103640,59526,15.53124532,8.920425596,42.48324035,-83.242507,366.4,3.1,93.8,1.4,0.9,0.9,230.9,137.9,401.8,63.6,Yes
Southgate Community School District,52344,1647,32603,18094,12.27291911,0.386166471,7.644314185,4.242438453,4265,48761,27859,11.43282532,6.532004689,42.20070646,-83.20167742,520.625,76.375,10.875,10.375,1,1.5,221.5,224.75,466.875,57.625,No
Sparta Area Schools,29678,1261,19906,8511,11.22041588,0.476748582,7.525897921,3.217769376,2645,28787,16654,10.88355388,6.296408318,43.1493141,-85.70951003,616.5,85,1.75,10.75,0.75,1.75,249,330.25,617,47.5,No
Spring Lake Public Schools,31029,411,18503,12115,12.49657672,0.165525574,7.451872735,4.879178413,2483,61307,16349,24.69069674,6.584373741,43.06786718,-86.17372154,421,91.2,1,4.8,1,2.4,59.8,338,413.2,25.4,No
Springport Public Schools,10971,690,6652,3629,11.83495146,0.74433657,7.17583603,3.914778857,927,9764,5658,10.53290183,6.103559871,42.3772237,-84.7040386,428,94,0,1,0,5,254,141,427,67,No
St. Charles Community Schools,10268,513,7702,2053,10.34038268,0.516616314,7.756294058,2.067472306,993,13324,5626,13.41792548,5.665659617,43.2981052,-84.1525282,215.5,78,8,8,1.5,4.5,109,87.5,208.5,59.5,No
St. Ignace Area Schools,6470,611,3331,2528,11.69981917,1.104882459,6.023508137,4.571428571,553,6116,3609,11.0596745,6.526220615,45.86397985,-84.7422447,267,40,2.5,1,0.5,56.5,102,121.5,246,49.5,Yes
St. Johns Public Schools,34242,1646,22692,9904,11.26752221,0.541625535,7.466929911,3.258966765,3039,31873,16838,10.48798947,5.540638368,42.99666147,-84.56760191,415.1428571,86.28571429,1.285714286,8.714285714,0.285714286,4,122.1428571,268,406.5714286,42.57142857,No
St. Joseph Public Schools,31231,590,18568,12073,10.65904437,0.201365188,6.337201365,4.120477816,2930,29452,16552,10.05187713,5.649146758,42.0625393,-86.47493174,586.6,79.6,6.6,4.6,5.4,3.8,138.8,414.2,590.6,30.4,No
St. Louis Public Schools,12294,754,8172,3368,11.65308057,0.714691943,7.745971564,3.192417062,1055,14846,5958,14.07203791,5.647393365,43.40957063,-84.6060217,260.5,84.25,2.25,11,0.5,1.75,148.5,95.75,260.5,64.25,No
Standish-Sterling Community Schools,16885,1064,11575,4246,10.65972222,0.671717172,7.307449495,2.680555556,1584,16223,8681,10.24179293,5.480429293,44.0336263,-84.026541,303,96,0,2,0,2,71,54,140,61,No
Stanton Township Public Schools,1569,135,1099,335,9.229411765,0.794117647,6.464705882,1.970588235,170,1443,917,8.488235294,5.394117647,47.1535366,-88.7211871,172,98,0,2,0,0,84,73,177,59,No
Stephenson Area Public Schools,6034,316,3058,2660,11.01094891,0.576642336,5.580291971,4.854014599,548,5598,3577,10.21532847,6.527372263,45.4190741,-87.6108994,180.5,95,0,3,1,1,67.5,65.5,162,57.5,No
