school,district,address,lat,lng,enrollment,percent_white,percent_black,percent_hispanic,percent_asian,percent_other,free_lunch_eligible,reduced_price_lunch_eligible,not_eligible,total_count,percent_student_body_eligible_for_frl,majority_minority
Alcona Community High School,Alcona Community Schools,"51 N Barlow Rd, Lincoln, MI 48742, United States",44.6574347,-83.4054034,356,95,2,1,1,1,236,38,143,417,66,No
Alcona Elementary School,Alcona Community Schools,"181 N Barlow Rd, Lincoln, MI 48742, United States",44.6571886,-83.4030052,367,93,1,3,0,3,192,35,82,309,73,No
AuTrain-Onota Public School,AuTrain-Onota Public Schools,"N8790 Deerton Rd, Deerton, MI 49822, United States",46.4744396,-87.0424802,31,87,0,3,0,10,25,6,11,42,74,No
Burt Township School,Burt Township School District,"27 Colwell Street, Grand Marais, MI 49839, United States",46.6683084,-85.9787546,25,100,0,0,0,0,24,1,5,30,83,No
William G. Mather Elementary School,Munising Public Schools,"810 M-28 suite a, Munising, MI 49862, United States",46.4173573,-86.6626344,293,82,0,2,0,16,128,12,131,271,52,No
Munising High and Middle School,Munising Public Schools,"810 M-28, Munising, MI 49862, United States",46.4170388,-86.6630177,358,79,0,3,0,18,149,19,178,346,49,No
Superior Central School,Superior Central School District,"E2865 M-94, Eben Junction, MI 49825, United States",46.3532337,-86.9717661,353,87,1,1,1,9,161,52,125,338,63,No
Hillside Learning & Behavior Center,Allegan Area Educational Service Agency,"212 Grove St, Allegan, MI 49010, United States",42.5268985,-85.8579896,78,86,5,5,1,3,38,3,91,132,31,No
Cooper Elementary School,Plainwell Community Schools,"7559 14th St N, Kalamazoo, MI 49009, United States",42.3703179,-85.6308805,250,91,1,4,1,2,53,11,219,283,23,No
Gilkey Elementary School,Plainwell Community Schools,"707 S Woodhams St, Plainwell, MI 49080, United States",42.4363734,-85.6388783,444,91,1,4,2,2,129,17,296,442,33,No
Plainwell High School,Plainwell Community Schools,"684 Starr Rd, Plainwell, MI 49080, United States",42.4376907,-85.6541748,788,94,2,3,1,1,209,26,610,845,28,No
Starr Elementary School,Plainwell Community Schools,"601 School Dr, Plainwell, MI 49080, United States",42.4383621,-85.6503982,513,87,2,7,1,3,237,33,244,514,53,No
Plainwell Middle School,Plainwell Community Schools,"720 Brigham St, Plainwell, MI 49080, United States",42.4363279,-85.6504095,629,91,2,5,1,1,189,25,412,626,34,No
Renaissance High School,Plainwell Community Schools,"422 Acorn St, Plainwell, MI 49080, United States",42.4475936,-85.6300052,100,90,4,3,0,3,47,2,31,80,61,No
Renaissance High School,Detroit City School District,"6565 Outer Dr W, Detroit, MI 48235, United States",42.4180671,-83.1926656,100,90,4,3,0,3,47,2,31,80,61,No
Dix Street Elementary School,Otsego Public Schools,"503 Dix St, Otsego, MI 49078, United States",42.4525152,-85.6889367,317,91,1,3,1,3,133,22,170,325,48,No
Otsego Middle School,Otsego Public Schools,"540 Washington St, Otsego, MI 49078, United States",42.4569131,-85.708374,515,93,2,3,0,2,166,36,333,535,38,No
Washington Street Elementary School,Otsego Public Schools,"538 Washington St, Otsego, MI 49078, United States",42.4547993,-85.708208,444,92,1,5,0,2,167,22,240,429,44,No
Otsego High School,Otsego Public Schools,"550 Washington St, Otsego, MI 49078, United States",42.4552279,-85.7121063,681,92,0,3,2,3,163,41,475,679,30,No
Alamo Elementary School,Otsego Public Schools,"8184 N 6th St, Kalamazoo, MI 49009, United States",42.3784332,-85.7072753,255,91,2,2,1,4,57,23,211,291,27,No
Otsego West Campus High School,Otsego Public Schools,"570 Washington St, Otsego, MI 49078, United States",42.4582845,-85.7167147,37,89,3,3,0,5,16,1,11,28,61,No
L.E. White Middle School,Allegan Public Schools,"3300 115th Ave, Allegan, MI 49010, United States",42.5273998,-85.8704632,617,90,2,5,1,3,276,41,253,570,56,No
Allegan High School,Allegan Public Schools,"1560 M-40, Allegan, MI 49010, United States",42.5299582,-85.8729501,682,87,3,7,1,2,264,53,384,701,45,No
Dawson Elementary School,Allegan Public Schools,"125 Elm St, Allegan, MI 49010, United States",42.5336128,-85.8638265,241,89,1,6,0,4,127,24,81,232,65,No
North Ward Elementary School,Allegan Public Schools,"440 River St, Allegan, MI 49010, United States",42.5361389,-85.8481558,265,85,3,9,1,3,125,29,107,261,59,No
Allegan Alternative High School,Allegan Public Schools,"550 5th St, Allegan, MI 49010, United States",42.5228734,-85.8426309,191,89,1,4,0,6,128,16,65,209,69,No
West Ward Elementary School,Allegan Public Schools,"630 Vernon St, Allegan, MI 49010, United States",42.5227784,-85.8650529,277,86,1,5,1,7,141,26,101,268,62,No
Pine Trails Elementary School,Allegan Public Schools,"2950 Center St, Allegan, MI 49010, United States",42.512681,-85.834508,270,84,4,6,1,6,161,31,73,265,72,No
Bessie B. Baker School,Wayland Union Schools,"507 W Sycamore St, Wayland, MI 49348, United States",42.6707618,-85.648866,291,89,1,4,0,5,139,40,163,342,52,No
Dorr School,Wayland Union Schools,"4159 18th St, Dorr, MI 49323, United States",42.7219049,-85.721236,547,89,1,5,1,4,155,46,352,553,36,No
Career Connections Academy,Wayland Union Schools,"850 E Superior St, Wayland, MI 49348, United States",42.6735001,-85.6300409,70,94,1,1,0,3,31,13,20,64,69,No
R.J. Steeby School,Wayland Union Schools,"435 E Superior St, Wayland, MI 49348, United States",42.6747108,-85.636341,348,89,2,3,1,5,161,43,179,383,53,No
Wayland High School,Wayland Union Schools,"870 E Superior St, Wayland, MI 49348, United States",42.6716411,-85.6314286,810,90,2,5,1,2,229,69,540,838,36,No
Pine Street Elementary,Wayland Union Schools,"201 Pine St, Wayland, MI 49348, United States",42.6725525,-85.6453372,392,88,0,5,2,5,158,38,232,428,46,No
Wayland Union Middle School,Wayland Union Schools,"701 Wildcat Dr, Wayland, MI 49348, United States",42.6683143,-85.6266445,440,90,1,5,1,4,133,35,249,417,40,No
Fennville Public High School,Fennville Public Schools,"4 S Memorial Dr, Fennville, MI 49408, United States",42.5991632,-86.107761,423,48,1,48,0,3,248,42,119,409,71,Yes
Fennville Middle School,Fennville Public Schools,"1 N Memorial Dr, Fennville, MI 49408, United States",42.5999107,-86.1053771,311,44,2,53,0,1,197,47,75,319,76,Yes
Fennville Elementary School,Fennville Public Schools,"8 N Memorial Dr, Fennville, MI 49408, United States",42.5972297,-86.1081607,580,45,2,50,0,3,396,71,115,582,80,Yes
Martin High School,Martin Public Schools,"1556 Chalmers St, Martin, MI 49070, United States",42.5361009,-85.6373625,270,89,1,7,1,2,103,17,163,283,42,No
Robert D. Brandon Elem. School,Martin Public Schools,"1583 University St, Martin, MI 49070, United States",42.5359898,-85.638651,297,85,1,10,1,3,179,34,122,335,64,No
Hopkins Elementary School,Hopkins Public Schools,"400 Clark St, Hopkins, MI 49328, United States",42.6208224,-85.7626676,453,92,2,2,0,4,163,44,238,445,47,No
Hopkins High School,Hopkins Public Schools,"215 Clark St, Hopkins, MI 49328, United States",42.6224284,-85.7603003,487,95,0,3,0,2,131,26,368,525,30,No
Sycamore Elementary School,Hopkins Public Schools,"2163 142nd Ave, Dorr, MI 49323, United States",42.7259192,-85.7582648,288,93,2,3,0,2,71,31,180,282,36,No
Sycamore Elementary School,Holt Public Schools,"4429 Sycamore St, Holt, MI 48842, United States",42.6355087,-84.5203098,288,93,2,3,0,2,71,31,180,282,36,No
Douglas Elementary School,Saugatuck Public Schools,"261 W Randolph St, Douglas, MI 49406, United States",42.6411655,-86.2062684,345,90,0,8,0,2,116,14,234,364,36,No
Saugatuck High School,Saugatuck Public Schools,"401 Elizabeth St, Saugatuck, MI 49453, United States",42.6585705,-86.1972645,287,90,0,6,0,4,70,15,194,279,30,No
Pioneer Tech High School,Hamilton Community Schools,"1362 S Point Pl #280, Holland, MI 49423, United States",42.749852,-86.076904,49,65,0,27,0,8,17,2,13,32,59,No
Hamilton Elementary School,Troy School District,"5625 Northfield Pkwy, Troy, MI 48098, United States",42.600552,-83.1767074,485,46,5,4,41,5,101,32,253,386,34,Yes
Hamilton Elementary School,Hamilton Community Schools,"3472 Lincoln Rd, Hamilton, MI 49419, United States",42.6710958,-85.9998925,485,46,5,4,41,5,101,32,253,386,34,Yes
Hamilton High School,Hamilton Community Schools,"4845 136th Ave, Hamilton, MI 49419, United States",42.6830541,-86.0187587,807,93,1,5,1,0,141,27,647,815,21,No
Blue Star Elementary School,Hamilton Community Schools,"3846 58th St, Holland, MI 49423, United States",42.7010869,-86.1148297,259,85,2,8,2,3,61,18,163,242,33,No
Sandyview Elementary School,Hamilton Community Schools,"4317 46th St, Holland, MI 49423, United States",42.7336304,-85.9977939,110,95,0,6,0,0,34,5,83,122,32,No
Bentheim Elementary School,Hamilton Community Schools,"4057 38th St, Hamilton, MI 49419, United States",42.7134813,-85.9183187,243,93,2,5,0,0,59,16,187,262,29,No
Glenn Public School,Glenn Public School District,"1392 Adams Rd, Glenn, MI 49416, United States",42.5200076,-86.2278295,34,77,0,6,9,9,17,3,14,34,59,No
Innocademy Allegan Campus,Innocademy Allegan Campus,"2611 56th St, Fennville, MI 49408, United States",42.6093736,-86.0940062,79,60,4,24,1,11,67,18,18,103,83,No
Outlook Academy,Outlook Academy,"2879 116th Ave, Allegan, MI 49010, United States",42.5345761,-85.8274742,37,84,3,3,0,11,31,0,4,35,89,No
Alpena High School,Alpena Public Schools,"3303 S 3rd Ave, Alpena, MI 49707, United States",45.0560664,-83.4675492,1306,95,1,1,1,3,453,79,719,1251,43,No
Besser Elementary School,Alpena Public Schools,"375 Wilson St, Alpena, MI 49707, United States",45.0842263,-83.4527236,433,94,1,2,1,3,193,36,210,439,52,No
Ella M. White School,Alpena Public Schools,"201 N Ripley Blvd, Alpena, MI 49707, United States",45.0547189,-83.4512197,471,94,1,2,0,3,251,38,174,463,62,No
Hinks School,Alpena Public Schools,"7667 US-23, Alpena, MI 49707, United States",45.1579399,-83.4259567,162,92,1,3,0,5,80,14,52,146,64,No
Lincoln Community School,Alpena Public Schools,"309 W Lake St, Alpena, MI 49707, United States",45.0694198,-83.4291763,178,92,1,3,0,4,125,11,37,173,79,No
Sanborn School,Alpena Public Schools,"12170 US-23, Ossineke, MI 49766, United States",44.8997531,-83.4427999,179,97,0,1,0,2,101,13,64,178,64,No
Wilson Community School,Alpena Public Schools,"4999 Herron Rd, Herron, MI 49744, United States",45.0049133,-83.6461181,220,94,0,3,1,2,106,24,83,213,61,No
Thunder Bay Junior High School,Alpena Public Schools,"3500 S 3rd Ave, Alpena, MI 49707, United States",45.0555989,-83.4784119,886,96,1,1,0,2,422,64,373,859,57,No
OxBow ACES Academy/Alternative and Adult Ed,Alpena Public Schools,"700 Pinecrest St, Alpena, MI 49707, United States",45.0821311,-83.4651944,99,98,0,0,0,2,72,4,23,99,77,No
Alba School,Alba Public Schools,"5935 Elm St, Alba, MI 49611, United States",44.9777259,-84.9700241,129,90,1,2,0,7,83,14,27,124,78,No
Central Lake Public Schools,Central Lake Public Schools,"8190 W State St, Central Lake, MI 49622, United States",45.0680372,-85.2684,288,92,0,2,0,6,149,23,109,281,61,No
Bellaire Middle/High School,Bellaire Public Schools,"204 W Forest Home Ave, Bellaire, MI 49615, United States",44.982292,-85.213738,232,88,1,2,2,7,91,9,122,222,45,No
Learning Center,Delta-Schoolcraft ISD,"2525 3rd Ave S, Escanaba, MI 49829, United States",45.7420275,-87.0840472,51,88,0,4,0,8,41,8,20,69,71,No
John R Rodger Elementary School,Bellaire Public Schools,"6535 John R Rodger Rd, Bellaire, MI 49615, United States",44.981992,-85.2217673,152,93,0,1,0,6,63,10,86,159,46,No
Elk Rapids High School,Elk Rapids Schools,"308 Meguzee Point Rd, Elk Rapids, MI 49629, United States",44.892057,-85.3949928,369,93,1,2,1,3,84,10,287,381,25,No
Cherryland Middle School,Elk Rapids Schools,"707 E 3rd St, Elk Rapids, MI 49629, United States",44.8943842,-85.3938562,328,90,0,5,1,3,89,16,222,327,32,No
Sunrise Academy,Elk Rapids Schools,"97 Lake St, Elk Rapids, MI 49629, United States",44.9014485,-85.4076069,25,64,4,20,0,12,10,2,7,19,63,No
Lakeland Elementary School,Elk Rapids Schools,"616 Buckley St, Elk Rapids, MI 49629, United States",44.897258,-85.395843,337,90,0,4,0,6,120,16,233,369,37,No
Lakeland Elementary School,Coldwater Community Schools,"519 Otis Rd, Coldwater, MI 49036, United States",41.8581851,-84.9786785,337,90,0,4,0,6,120,16,233,369,37,No
Mill Creek Elementary School,Elk Rapids Schools,"9039 Old State Hwy 72, Williamsburg, MI 49690, United States",44.7746838,-85.3927856,206,90,1,5,0,4,66,10,129,205,37,No
Ellsworth Community School,Ellsworth Community School,"9467 Park St, Ellsworth, MI 49729, United States",45.168805,-85.2467113,266,82,2,6,1,8,128,22,115,265,57,No
Mancelona Elementary School,Mancelona Public Schools,"231 W Limits Rd, Mancelona, MI 49659, United States",44.8999696,-85.0703502,339,92,0,4,0,4,232,20,83,335,75,No
Mancelona High School,Mancelona Public Schools,"9300 W Limits Rd, Mancelona, MI 49659, United States",44.8972278,-85.0736833,276,98,0,1,0,1,182,30,99,311,68,No
Mancelona Middle School,Mancelona Public Schools,"112 St Johns Ave, Mancelona, MI 49659, United States",44.9011645,-85.0648105,319,95,1,2,0,2,212,28,87,327,73,No
Au Gres-Sims Elementary School,Au Gres-Sims School District,"310 S Court St, Au Gres, MI 48703, United States",44.0455916,-83.6966814,164,93,0,4,0,3,127,15,62,204,70,No
Au Gres-Sims High School,Au Gres-Sims School District,"140 S Court St, Au Gres, MI 48703, United States",44.0468228,-83.697245,149,94,0,3,0,3,66,15,80,161,50,No
Sterling Elementary School,Standish-Sterling Community Schools,"338 W State St, Sterling, MI 48659, United States",44.0336263,-84.026541,303,96,0,2,0,2,71,15,54,140,61,No
Baraga School,Baraga Area Schools,"Baraga Area Schools, MI, USA",46.7778547,-88.5869031,424,56,0,1,0,44,211,36,137,384,64,No
Delton-Kellogg High School,Delton Kellogg Schools,"10425 Panther Pride Dr, Delton, MI 49046, United States",42.5000259,-85.4136031,401,92,1,4,0,3,140,24,232,396,41,No
Delton Kellogg Elem. School,Delton Kellogg Schools,"327 N Grove St, Delton, MI 49046, United States",42.5021035,-85.409623,427,92,3,3,0,2,238,27,139,404,66,No
Northeastern Elementary School,Kalamazoo Public Schools,"2433 Gertrude St, Kalamazoo, MI 49048, United States",42.3071095,-85.5498691,274,21,56,8,0,16,113,26,179,318,44,Yes
Northeastern Elementary School,Hastings Area School District,"519 E Grant St, Hastings, MI 49058, United States",42.6566402,-85.2815505,274,21,56,8,0,16,113,26,179,318,44,Yes
Central Elementary School,White Pigeon Community Schools,"305 E Hotchin Ave, White Pigeon, MI 49099, United States",41.7967133,-85.6377061,351,84,0,10,0,5,137,22,128,287,55,No
Central Elementary School,Reeths-Puffer Schools,"1807 W Giles Rd, Muskegon, MI 49445, United States",43.2779756,-86.2887505,351,84,0,10,0,5,137,22,128,287,55,No
Central Elementary School,Public Schools of Petoskey,"410 State St, Petoskey, MI 49770, United States",45.3715309,-84.9549571,351,84,0,10,0,5,137,22,128,287,55,No
Central Elementary School,Portage Public Schools,"8422 S Westnedge Ave, Portage, MI 49002, United States",42.1949233,-85.5906382,351,84,0,10,0,5,137,22,128,287,55,No
Central Elementary School,Menominee Area Public Schools,"18th Ave, Menominee, MI 49858, United States",45.116014,-87.626231,351,84,0,10,0,5,137,22,128,287,55,No
Central Elementary School,Linden Community Schools,"7199 Silver Lake Rd, Linden, MI 48451, United States",42.8088096,-83.8127462,351,84,0,10,0,5,137,22,128,287,55,No
Central Elementary School,Hastings Area School District,"509 S Broadway St, Hastings, MI 49058, United States",42.6445586,-85.2901208,351,84,0,10,0,5,137,22,128,287,55,No
Central Elementary School,Flushing Community Schools,"525 Coutant St, Flushing, MI 48433, United States",43.0680746,-83.8467015,351,84,0,10,0,5,137,22,128,287,55,No
Central Elementary School,Davison Community Schools,"600 S State Rd, Davison, MI 48423, United States",43.0248873,-83.5184569,351,84,0,10,0,5,137,22,128,287,55,No
Hastings Middle School,Hastings Area School District,"232 W Grand St, Hastings, MI 49058, United States",42.6435743,-85.2907258,621,93,0,5,0,2,226,32,332,590,44,No
Southeastern Elementary School,Hastings Area School District,"1300 S East St, Hastings, MI 49058, United States",42.6380384,-85.2815796,254,90,1,6,0,4,154,24,90,268,66,No
Hastings High School,Hastings Area School District,"520 W South St, Hastings, MI 49058, United States",42.6378056,-85.2947513,890,94,1,3,1,2,337,40,499,876,43,No
Star Elementary School,Hastings Area School District,"1900 Star School Rd, Hastings, MI 49058, United States",42.6274681,-85.2732238,310,91,0,6,0,2,135,23,163,321,49,No
McFall Elementary School,Thornapple Kellogg School District,"509 W Main St, Middleville, MI 49333, United States",42.7098501,-85.4725301,476,95,1,4,0,1,134,39,328,501,35,No
Thornapple Kellogg High School,Thornapple Kellogg School District,"3885 Bender Rd, Middleville, MI 49333, United States",42.7087149,-85.4877478,909,90,1,4,1,4,180,65,688,933,26,No
Lee Elementary School,Thornapple Kellogg School District,"840 W Main St, Middleville, MI 49333, United States",42.7123302,-85.4788139,410,92,1,4,1,3,141,31,297,469,37,No
Thornapple Kellogg Middle School,Thornapple Kellogg School District,"10375 Green Lake Rd, Middleville, MI 49333, United States",42.7093082,-85.4938413,709,91,1,5,2,2,174,50,519,743,30,No
Page Elementary School,Thornapple Kellogg School District,"3675 Bender Rd, Middleville, MI 49333, United States",42.7066262,-85.4875839,461,91,1,5,1,3,125,41,292,458,36,No
LLC---Bay Campus,Bay-Arenac ISD,"4228 2 Mile Rd, Bay City, MI 48706, United States",43.6191579,-83.933818,41,93,5,2,0,0,58,3,36,97,63,No
LLC--Arenac Campus,Bay-Arenac ISD,"2032 Pine River Rd, Standish, MI 48658, United States",43.9830196,-83.8869168,33,82,9,0,0,9,19,4,5,28,82,No
Auburn Elementary School,Bay City School District,"301 E Midland St Rd, Auburn, MI 48611, United States",43.6040289,-84.0655759,571,91,1,4,1,3,153,34,313,500,37,No
Auburn Elementary School,Avondale School District,"2900 Waukegan St, Auburn Hills, MI 48326, United States",42.628378,-83.2296109,571,91,1,4,1,3,153,34,313,500,37,No
Bay City Central High School,Bay City School District,"1624 Columbus Ave, Bay City, MI 48708, United States",43.5889599,-83.8733052,1142,78,4,12,1,5,596,74,487,1157,58,No
Hampton Elementary School,Rochester Community School District,"530 Hampton Cir, Rochester Hills, MI 48307, United States",42.6503713,-83.1226895,448,51,6,7,34,2,213,38,199,450,56,No
Hampton Elementary School,Bay City School District,"1908 W Youngs Ditch Rd, Bay City, MI 48708, United States",43.5823121,-83.8565998,448,51,6,7,34,2,213,38,199,450,56,No
Linsday Elementary School,Bay City School District,"607 Lasalle St, Bay City, MI 48706, United States",43.6184525,-83.8874358,296,76,3,12,0,9,204,17,39,260,85,No
Mackensen Elementary School,Bay City School District,"5535 Dennis Dr, Bay City, MI 48706, United States",43.579699,-83.9343559,338,90,1,4,0,4,80,12,234,326,28,No
Western Middle School,Western School District,"1400 S Dearing Rd, Parma, MI 49269, United States",42.2445503,-84.540451,683,87,3,3,1,6,224,42,611,877,30,No
Western Middle School,Bay City School District,"500 W Midland Rd, Auburn, MI 48611, United States",43.6050622,-84.0780686,683,87,3,3,1,6,224,42,611,877,30,No
Handy Middle School,Bay City School District,"601 Blend St, Bay City, MI 48706, United States",43.6069421,-83.9107313,891,73,9,13,1,5,599,62,267,928,71,No
Washington Elementary School,"Wyandotte, School District of the City of","1440 Superior Blvd, Wyandotte, MI 48192, United States",42.206503,-83.1699614,360,79,2,14,0,5,362,17,43,422,90,No
Washington Elementary School,Sault Ste. Marie Area Schools,"1200 Ryan Ave, Sault Ste. Marie, MI 49783, United States",46.4900404,-84.3595776,360,79,2,14,0,5,362,17,43,422,90,No
Washington Elementary School,Romeo Community Schools,"58230 Van Dyke Ave, Washington, MI 48094, United States",42.722585,-83.0346927,360,79,2,14,0,5,362,17,43,422,90,No
Washington Elementary School,Marysville Public Schools,"905 16th St, Marysville, MI 48040, United States",42.9058911,-82.4877943,360,79,2,14,0,5,362,17,43,422,90,No
Washington Elementary School,Charlotte Public Schools,"525 High St, Charlotte, MI 48813, United States",42.5710487,-84.8437042,360,79,2,14,0,5,362,17,43,422,90,No
Washington Elementary School,Bay City School District,"1821 McKinley St, Bay City, MI 48708, United States",43.5941808,-83.870679,360,79,2,14,0,5,362,17,43,422,90,No
McAlear-Sawden Elem. School,Bay City School District,"2300 Midland Rd, Bay City, MI 48706, United States",43.6007765,-83.9601318,451,91,1,3,1,4,178,36,251,465,46,No
Kolb Elementary School,Bay City School District,"305 W Crump St, Bay City, MI 48706, United States",43.5922298,-83.9074284,574,79,3,10,1,7,318,58,202,578,65,No
MacGregor Elementary School,Bay City School District,"1012 Fremont Ave, Bay City, MI 48708, United States",43.5723664,-83.8886357,439,70,8,14,0,8,354,20,40,414,90,No
Wenona Center Home of Wenona High/Middle School,Bay City School District,"201 Woodside Ln, Bay City, MI 48708, United States",43.6059115,-83.8652544,117,62,5,21,0,12,81,5,7,93,92,No
Bangor Central School,Bangor Township Schools,"208 State Park Dr, Bay City, MI 48706, United States",43.6408679,-83.8959038,334,89,4,5,1,2,205,25,111,341,67,No
Christa McAuliffe Middle School,Bangor Township Schools,"3281 Kiesel Rd, Bay City, MI 48706, United States",43.6177977,-83.9234616,609,89,2,6,1,3,329,53,256,638,60,No
Bangor Lincoln School,Bangor Township Schools,"2771 N Euclid Ave, Bay City, MI 48706, United States",43.6594964,-83.9118954,324,86,2,8,1,3,169,28,124,321,61,No
Bangor West Central School,Bangor Township Schools,"3175 Wilder Rd, Bay City, MI 48706, United States",43.624671,-83.9250478,326,89,1,4,1,5,182,14,138,334,59,No
John Glenn High School,Wayne-Westland Community School District,"36105 Marquette St, Westland, MI 48185, United States",42.3161303,-83.3963223,1674,53,41,4,1,2,357,61,432,850,49,No
John Glenn High School,Bangor Township Schools,"3201 Kiesel Rd, Bay City, MI 48706, United States",43.6178789,-83.9264835,1674,53,41,4,1,2,357,61,432,850,49,No
Bangor Township Virtual School,Bangor Township Schools,"3359 E Midland Rd, Bay City, MI 48706, United States",43.6032585,-83.9196549,75,95,0,5,0,0,67,4,38,109,65,No
Garber High School,Essexville-Hampton Public Schools,"213 Pine St, Essexville, MI 48732, United States",43.6074615,-83.8342799,537,93,3,3,1,1,172,13,386,571,32,No
Verellen Elementary School,Essexville-Hampton Public Schools,"612 W Borton Rd, Essexville, MI 48732, United States",43.6094228,-83.8036036,322,90,1,6,0,3,115,7,196,318,38,No
W.R. Bush Elementary School,Essexville-Hampton Public Schools,"800 Nebobish Ave, Essexville, MI 48732, United States",43.603128,-83.848644,226,94,3,2,0,1,99,17,139,255,45,No
Cramer Junior High School,Essexville-Hampton Public Schools,"313 Pine St, Essexville, MI 48732, United States",43.6076058,-83.8363286,575,92,2,4,1,1,195,23,359,577,38,No
Linwood Elementary School,Pinconning Area Schools,"517 W Center St, Linwood, MI 48634, United States",43.7384519,-83.9679945,149,93,0,6,0,1,69,19,64,152,58,No
Pinconning High School,Pinconning Area Schools,"E Pinconning Rd, Pinconning, MI 48650, United States",43.8519325,-83.969635,418,93,1,4,0,2,168,27,226,421,46,No
Pinconning Central Elementary School,Pinconning Area Schools,"605 W 5th St, Pinconning, MI 48650, United States",43.853321,-83.967268,444,90,2,3,1,5,241,47,156,444,65,No
Bay-Arenac Community High School,Bay-Arenac Community High School,"805 Langstaff St, Essexville, MI 48732, United States",43.6125705,-83.8389577,138,70,4,17,1,7,110,2,32,144,78,No
Bay City Academy - Farragut Campus,Bay City Academy,"301 N Farragut St, Bay City, MI 48708, United States",43.5928891,-83.8800626,145,68,11,15,0,6,144,14,39,197,80,No
Benzie Central Sr. High School,Benzie County Central Schools,"9222 Homestead Rd, Benzonia, MI 49616, United States",44.6186716,-86.0533246,429,92,1,3,0,4,191,40,216,447,52,No
Crystal Lake Elementary School,Benzie County Central Schools,"7048 Severance St, Benzonia, MI 49616, United States",44.6208351,-86.097313,166,86,1,3,2,8,157,13,86,256,66,No
Betsie Valley School,Benzie County Central Schools,"17936 Cadillac Hwy, Thompsonville, MI 49683, United States",44.4932019,-85.9400975,136,93,0,1,1,4,100,7,36,143,75,No
Benzie Central Middle School,Benzie County Central Schools,"9300 Homestead Rd, Benzonia, MI 49616, United States",44.6183415,-86.0520659,225,92,0,3,0,4,164,30,127,321,60,No
Lake Ann Elementary School,Benzie County Central Schools,"19375 Bronson Lake Rd, Interlochen, MI 49643, United States",44.679657,-85.8503125,226,91,0,4,0,5,102,16,116,234,50,No
Frankfort Elementary School,Frankfort-Elberta Area Schools,"534 11th St, Frankfort, MI 49635, United States",44.6368204,-86.2266221,218,87,1,3,1,8,109,14,82,205,60,No
Frankfort High School,Frankfort-Elberta Area Schools,"613 Leelanau Ave, Frankfort, MI 49635, United States",44.6350084,-86.2356744,252,89,1,5,1,4,104,10,136,250,46,No
Berrien County Juvenile Center,Berrien RESA,"6414 Deans Hill Rd, Berrien Center, MI 49102, United States",41.9548116,-86.3047337,36,28,69,0,3,0,21,0,3,24,88,Yes
Lighthouse Education Center,Berrien RESA,"379 W Glenlord Rd, St Joseph, MI 49085, United States",42.044178,-86.4622726,106,76,19,2,1,2,73,11,28,112,75,No
Blossomland Learning Center,Berrien RESA,"711 St Joseph Ave, Berrien Springs, MI 49103, United States",41.9518569,-86.3487297,134,60,32,5,4,0,117,4,81,202,60,No
Benton Harbor High School,Benton Harbor Area Schools,"870 Colfax Ave, Benton Harbor, MI 49022, United States",42.1024415,-86.457231,604,1,93,4,0,2,451,19,155,625,75,Yes
STEAM Academy at MLK,Benton Harbor Area Schools,"750 E Britain Ave, Benton Harbor, MI 49022, United States",42.108672,-86.44077,333,3,94,2,0,2,345,5,60,410,85,Yes
Arts & Communications Academy at Fair Plain,Benton Harbor Area Schools,"120 E Napier Ave, Benton Harbor, MI 49022, United States",42.0866851,-86.4546661,362,3,93,1,0,3,359,3,75,437,83,Yes
International Academy at Hull,Benton Harbor Area Schools,"1716 Territorial Rd, Benton Harbor, MI 49022, United States",42.1222,-86.4163199,405,3,80,14,0,2,291,1,50,342,85,Yes
Brown School,St. Joseph Public Schools,"2027 Brown School Rd, St Joseph, MI 49085, United States",42.0664929,-86.5032071,370,78,6,4,7,5,82,29,268,379,29,No
Clarke School,St. Joseph Public Schools,"515 Glenlord Rd, St Joseph, MI 49085, United States",42.0443559,-86.4456759,451,79,6,5,6,4,104,24,318,446,29,No
Lincoln School,St. Joseph Public Schools,"1102 Orchard Ave, St Joseph, MI 49085, United States",42.0933109,-86.4787062,411,77,6,7,4,6,113,19,273,405,33,No
Lincoln School,South Haven Public Schools,"500 Elkenburg St, South Haven, MI 49090, United States",42.3920214,-86.2730922,411,77,6,7,4,6,113,19,273,405,33,No
Lincoln School,Sault Ste. Marie Area Schools,"810 5th Ave E, Sault Ste. Marie, MI 49783, United States",46.4866776,-84.3421345,411,77,6,7,4,6,113,19,273,405,33,No
Lincoln School,Public Schools of Petoskey,"616 Connable Ave, Petoskey, MI 49770, United States",45.3710876,-84.9699019,411,77,6,7,4,6,113,19,273,405,33,No
St. Joseph High School,St. Joseph Public Schools,"3275 Lincoln Ave, St Joseph, MI 49085, United States",42.058428,-86.4742445,993,83,8,3,5,2,222,60,737,1019,28,No
Upton Middle School,St. Joseph Public Schools,"800 Maiden Ln, St Joseph, MI 49085, United States",42.0501088,-86.472825,708,81,7,4,5,2,173,56,475,704,33,No
Hollywood Elementary School,Lakeshore School District (Berrien),"143 W John Beers Rd, Stevensville, MI 49127, United States",42.0151452,-86.4552374,402,77,5,10,2,6,161,24,233,418,44,No
Lakeshore High School,Lakeshore School District (Berrien),"5771 Cleveland Ave, Stevensville, MI 49127, United States",42.013216,-86.494049,863,86,6,4,2,3,206,25,646,877,26,No
Lakeshore Middle School,Lakeshore School District (Berrien),"1459 W John Beers Rd, Stevensville, MI 49127, United States",42.0156273,-86.4885941,666,81,4,6,4,5,165,29,454,648,30,No
Lakeshore Middle School,Grand Haven Area Public Schools,"900 Cutler St, Grand Haven, MI 49417, United States",43.0550994,-86.2249146,666,81,4,6,4,5,165,29,454,648,30,No
Roosevelt Elementary School,Zeeland Public Schools,"175 W Roosevelt Ave, Zeeland, MI 49464, United States",42.8203047,-86.0249662,280,68,1,23,4,4,105,17,310,432,28,No
Roosevelt Elementary School,West Bloomfield School District,"2065 Cass Lake Rd, Keego Harbor, MI 48320, United States",42.608675,-83.3431203,280,68,1,23,4,4,105,17,310,432,28,No
Roosevelt Elementary School,Port Huron Area School District,"1112 20th St, Port Huron, MI 48060, United States",42.9718925,-82.4473135,280,68,1,23,4,4,105,17,310,432,28,No
Roosevelt Elementary School,Livonia Public Schools School District,"30200 Lyndon, Livonia, MI 48154, United States",42.3915865,-83.3427033,280,68,1,23,4,4,105,17,310,432,28,No
Roosevelt Elementary School,Lakeshore School District (Berrien),"2000 Eldorado Dr, Stevensville, MI 49127, United States",42.0188457,-86.5007849,280,68,1,23,4,4,105,17,310,432,28,No
Stewart Elementary School,Lakeshore School District (Berrien),"2750 Orchard Ln, Stevensville, MI 49127, United States",42.0409376,-86.5203137,391,77,3,10,6,5,131,28,260,419,38,No
Chikaming Elementary School,River Valley School District,"13742 Three Oaks Rd, Sawyer, MI 49125, United States",41.8704005,-86.6103537,136,92,0,4,1,3,80,7,47,134,65,No
River Valley Middle/High School,River Valley School District,"15480 Three Oaks Rd, Three Oaks, MI 49128, United States",41.8389515,-86.6110908,295,90,0,3,1,6,138,17,160,315,49,No
Three Oaks Elementary School,River Valley School District,"100 Oak St, Three Oaks, MI 49128, United States",41.799276,-86.6080028,143,87,1,7,0,6,63,14,51,128,60,No
New Buffalo Senior High School,New Buffalo Area Schools,"1112 E Clay St, New Buffalo, MI 49117, United States",41.7951775,-86.7289062,240,87,3,4,3,3,69,13,112,194,42,No
New Buffalo Elementary School,New Buffalo Area Schools,"12291 Lubke Rd, New Buffalo, MI 49117, United States",41.7828368,-86.7575053,234,83,3,12,0,3,87,18,123,228,46,No
Brandywine Elementary School,Brandywine Community Schools,"2428 S 13th St, Niles, MI 49120, United States",41.781327,-86.246303,419,84,3,8,0,5,252,29,144,425,66,No
Brandywine Middle School,Brandywine Community Schools,"1700 Bell Rd, Niles, MI 49120, United States",41.7995794,-86.2332934,205,86,4,5,0,4,145,18,88,251,65,No
Berrien Springs Middle School,Berrien Springs Public Schools,"502 Middle School Drive, Berrien Springs, MI 49103, United States",41.945249,-86.3500359,406,48,26,16,5,6,255,32,150,437,66,Yes
Berrien Springs High School,Berrien Springs Public Schools,"201 Sylvester Ave, Berrien Springs, MI 49103, United States",41.9461771,-86.3460177,481,47,26,12,7,8,244,36,237,517,54,Yes
Mars Elementary School,Berrien Springs Public Schools,"430 W Mars St, Berrien Springs, MI 49103, United States",41.9455876,-86.3429086,363,41,28,14,5,12,301,23,90,414,78,Yes
Sylvester Elementary School,Berrien Springs Public Schools,"101 Sylvester Ave, Berrien Springs, MI 49103, United States",41.9484437,-86.345923,421,43,28,16,6,7,260,22,107,389,72,Yes
Berrien Springs Virtual Academy,Berrien Springs Public Schools,"1 Sylvester Ave, Berrien Springs, MI 49103, United States",41.9446349,-86.3446881,53,60,8,25,2,6,23,3,47,73,36,No
West Michigan Virtual - Battle Creek HS,Berrien Springs Public Schools,"35 W Hamblin Ave, Battle Creek, MI 49017, United States",42.3187866,-85.1866226,281,72,9,6,0,13,174,7,79,260,70,No
Success - Howard City/Tri County,Berrien Springs Public Schools,"412 E Edgerton St Rd, Howard City, MI 49329, United States",43.396354,-85.464966,72,83,1,10,1,4,37,6,23,66,65,No
Success - Stanton/Central Montcalm,Berrien Springs Public Schools,"1480 S Sheridan Rd, Stanton, MI 48888, United States",43.2742468,-85.0757965,61,93,0,5,0,2,47,1,31,79,61,No
Success - Grand Rapids Fuller Ave,Berrien Springs Public Schools,"1309 Leonard St NE, Grand Rapids, MI 49505, United States",42.9847892,-85.6371239,71,38,20,27,0,15,101,5,46,152,70,Yes
Eau Claire High School,Eau Claire Public Schools,"7450 Hochberger Rd, Eau Claire, MI 49111, United States",41.981781,-86.312004,230,42,30,24,1,3,172,6,29,207,86,Yes
Lybrook Elementary School,Eau Claire Public Schools,"6238 W Main St, Eau Claire, MI 49111, United States",41.9831651,-86.3071165,309,39,21,33,0,6,332,19,39,390,90,Yes
Ballard Elementary School,Niles Community Schools,"1601 W Chicago Rd, Niles, MI 49120, United States",41.8163365,-86.2805989,635,61,10,18,0,11,383,43,163,589,72,No
Eastside Connections School,Niles Community Schools,"1 Tyler St, Niles, MI 49120, United States",41.8229177,-86.2310886,392,80,7,4,1,9,134,29,243,406,40,No
Northside Child Development Center,Niles Community Schools,"2020 N 5th St, Niles, MI 49120, United States",41.8474924,-86.2491113,87,77,9,8,1,5,58,8,26,92,72,No
Ring Lardner Middle School,Niles Community Schools,"801 N. 17th, Niles, MI 49120, United States",41.8353399,-86.2332766,438,72,8,11,1,8,351,51,246,648,62,No
Niles Comm. Schools Adult Education,Niles Community Schools,"620 E Main St, Niles, MI 49120, United States",41.8292978,-86.2522855,27,85,11,4,0,0,20,0,8,28,71,No
Buchanan High School,Buchanan Community Schools,"401 W Chicago St, Buchanan, MI 49107, United States",41.8240443,-86.368974,542,86,5,3,1,5,236,46,287,569,50,No
Moccasin Elementary School,Buchanan Community Schools,"410 Moccasin St, Buchanan, MI 49107, United States",41.8323861,-86.362658,345,86,4,1,0,9,159,26,154,339,55,No
Ottawa Elementary School,Public Schools of Petoskey,"871 Kalamazoo Ave, Petoskey, MI 49770, United States",45.3681158,-84.9440432,317,88,1,1,0,10,113,16,96,225,57,No
Ottawa Elementary School,Chippewa Valley Schools,"18601 Millar Rd, Clinton Twp, MI 48036, United States",42.5730483,-82.9300454,317,88,1,1,0,10,113,16,96,225,57,No
Ottawa Elementary School,Buchanan Community Schools,"109 Ottawa St, Buchanan, MI 49107, United States",41.8289123,-86.3742035,317,88,1,1,0,10,113,16,96,225,57,No
Buchanan Middle School,Buchanan Community Schools,"610 W 4th St, Buchanan, MI 49107, United States",41.8340781,-86.3744645,351,85,4,4,0,7,175,29,151,355,57,No
North Elementary School,Watervliet School District,"287 Baldwin Ave, Watervliet, MI 49098, United States",42.1974881,-86.2614733,308,81,2,12,0,6,179,24,101,304,67,No
North Elementary School,Jefferson Schools (Monroe),"8281 N Dixie Hwy, Newport, MI 48166, United States",41.9985902,-83.278613,308,81,2,12,0,6,179,24,101,304,67,No
North Elementary School,Ithaca Public Schools,"201 E Arcada St, Ithaca, MI 48847, United States",43.2962009,-84.6060374,308,81,2,12,0,6,179,24,101,304,67,No
North Elementary School,Iron Mountain Public Schools,"900 5th St, Iron Mountain, MI 49801, United States",45.8269056,-88.0487476,308,81,2,12,0,6,179,24,101,304,67,No
North Elementary School,Comstock Public Schools,"3100 N 26th St, Kalamazoo, MI 49048, United States",42.3163042,-85.5160519,308,81,2,12,0,6,179,24,101,304,67,No
North Elementary School,Birch Run Area Schools,"12440 Church St, Birch Run, MI 48415, United States",43.2454795,-83.7956018,308,81,2,12,0,6,179,24,101,304,67,No
Watervliet Senior High School,Watervliet School District,"450 E St Joseph St, Watervliet, MI 49098, United States",42.1871657,-86.2509378,384,82,3,9,1,6,171,36,175,382,54,No
South Elementary School,Watervliet School District,"433 Lucinda Ln, Watervliet, MI 49098, United States",42.1832451,-86.2654127,301,76,1,16,1,7,197,26,107,330,68,No
South Elementary School,Ithaca Public Schools,"400 Webster St, Ithaca, MI 48847, United States",43.2839622,-84.6026077,301,76,1,16,1,7,197,26,107,330,68,No
South Elementary School,Hudsonville Public School District,"Hudsonville Public School District, MI, USA",42.8479125,-85.8690933,301,76,1,16,1,7,197,26,107,330,68,No
The Bridge Academy,Coloma Community Schools,"499 W Main St, Benton Harbor, MI 49022, United States",42.114022,-86.465136,89,30,61,5,0,4,75,2,14,91,85,Yes
Coloma Elementary School,Coloma Community Schools,"262 S West St, Coloma, MI 49038, United States",42.1831895,-86.3080557,394,71,8,10,0,12,258,22,78,358,78,No
Coloma High School,Coloma Community Schools,"300 W St Joseph St, Coloma, MI 49038, United States",42.1783458,-86.3136792,469,79,7,8,0,7,266,41,169,476,64,No
Coloma Junior High School,Coloma Community Schools,"302 W St Joseph St, Coloma, MI 49038, United States",42.1764885,-86.3135347,366,82,6,4,1,7,227,25,89,341,74,No
Coloma Intermediate School,Coloma Community Schools,"274 S West St A, Coloma, MI 49038, United States",42.1818321,-86.3084474,194,71,6,13,0,10,144,15,47,206,77,No
Bridgman Elementary School,Bridgman Public Schools,"3891 Lake St, Bridgman, MI 49106, United States",41.9442251,-86.5475789,359,89,3,4,1,3,130,30,176,336,48,No
Bridgman High School,Bridgman Public Schools,"9964 Gast Rd, Bridgman, MI 49106, United States",41.9389307,-86.5446433,307,93,1,2,1,3,73,16,159,248,36,No
F.C. Reed Middle School,Bridgman Public Schools,"10254 California Rd, Bridgman, MI 49106, United States",41.9336464,-86.5541244,274,87,1,5,0,7,86,18,185,289,36,No
Riverside School,Hagar Township S/D #6,"3422 Riverside Rd, Benton Harbor, MI 49022, United States",42.1738191,-86.388311,74,69,15,5,0,11,56,4,23,83,72,No
River School,Sodus Township S/D #5,"4439 River Rd, Sodus, MI 49126, United States",42.037498,-86.3970792,73,66,11,16,0,7,51,7,18,76,76,No
Countryside Academy - Middle/High School,Countryside Academy,"4800 Meadowbrook Rd, Benton Harbor, MI 49022, United States",42.0779113,-86.3434677,286,26,56,14,0,4,238,19,66,323,80,Yes
Benton Harbor Charter School Academy,Benton Harbor Charter School Academy,"455 Riverview Dr, Benton Harbor, MI 49022, United States",42.1097297,-86.4625015,414,1,93,5,0,1,445,5,32,482,93,Yes
Mildred C. Wells Preparatory Academy,Mildred C. Wells Preparatory Academy,"248 9th St, Benton Harbor, MI 49022, United States",42.1129035,-86.4590454,172,2,98,0,0,0,196,0,0,196,100,Yes
Waldron Learning Center,Branch ISD,"214 Bishop Ave, Coldwater, MI 49036, United States",41.9528627,-85.0197376,239,93,1,5,0,0,159,19,89,267,67,No
Coldwater High School,Coldwater Community Schools,"275 N Fremont St, Coldwater, MI 49036, United States",41.9500099,-85.0121812,858,89,0,8,2,2,411,36,441,888,50,No
Larsen Elementary School,Coldwater Community Schools,"25 Parkhurst Ave, Coldwater, MI 49036, United States",41.9483985,-85.0064585,458,90,1,7,2,1,279,16,155,450,66,No
Jefferson Elementary School,"Wyandotte, School District of the City of","1515 15th St, Wyandotte, MI 48192, United States",42.2176751,-83.1704885,522,86,4,8,0,2,248,24,138,410,66,No
Jefferson Elementary School,Warren Consolidated Schools,"37555 Carol Dr, Sterling Heights, MI 48310, United States",42.569866,-83.066136,522,86,4,8,0,2,248,24,138,410,66,No
Jefferson Elementary School,Coldwater Community Schools,"15 Vans Ave, Coldwater, MI 49036, United States",41.939938,-84.9846911,522,86,4,8,0,2,248,24,138,410,66,No
Legg Middle School,Coldwater Community Schools,"175 Green St, Coldwater, MI 49036, United States",41.9501129,-85.0167741,634,89,0,8,2,1,351,37,282,670,58,No
Anderson Elementary School,Grand Blanc Community Schools,"5290 Leroy St, Grand Blanc, MI 48439, United States",42.9504833,-83.6684198,368,71,14,5,1,10,141,23,84,248,66,No
Anderson Elementary School,Bronson Community School District,"335 E Corey St, Bronson, MI 49028, United States",41.8721415,-85.1877043,368,71,14,5,1,10,141,23,84,248,66,No
Bronson Jr/Sr High School,Bronson Community School District,"450 E Grant St, Bronson, MI 49028, United States",41.8680436,-85.1861049,523,78,1,19,0,2,248,58,253,559,55,No
Ryan Elementary School,Bronson Community School District,"461 Rudd St, Bronson, MI 49028, United States",41.8665726,-85.200644,256,77,1,21,0,1,145,18,86,249,65,No
Jennings Elementary School,Quincy Community Schools,"44 E Liberty St, Quincy, MI 49082, United States",41.9406865,-84.8798373,471,95,0,3,0,2,204,36,206,446,54,No
Quincy High School,Quincy Community Schools,"30 Colfax St, Quincy, MI 49082, United States",41.943222,-84.8791275,373,95,0,3,2,1,119,16,246,381,35,No
Pansophia Academy,Pansophia Academy,"52 Abbott Ave, Coldwater, MI 49036, United States",41.9497929,-84.9965798,416,82,1,15,0,2,316,26,48,390,88,No
Doris Klaussen Dev. Center,Calhoun ISD,"Emmett Charter Township, MI 49014, United States",42.3215211,-85.1342766,201,72,15,10,2,1,181,12,94,287,67,No
Starr Albion Prep,Calhoun ISD,"13660 26 Mile Rd, Albion, MI 49224, United States",42.2745933,-84.8001057,109,51,41,6,0,2,124,0,1,125,99,No
Battle Creek Central High School,Battle Creek Public Schools,"3 W Van Buren St W, Battle Creek, MI 49017, United States",42.3207746,-85.1803593,1057,31,42,13,5,9,690,44,278,1012,73,Yes
Dudley School,Battle Creek Public Schools,"308 W Roosevelt Ave, Battle Creek, MI 49037, United States",42.3390166,-85.2021492,192,29,60,6,1,4,125,11,9,145,94,Yes
Post Franklin School,Battle Creek Public Schools,"20 Newark Ave, Battle Creek, MI 49014, United States",42.3085176,-85.1732732,306,29,26,27,1,17,253,5,31,289,89,Yes
Northwestern Middle School,Battle Creek Public Schools,"176 Limit St, Battle Creek, MI 49037, United States",42.3365402,-85.208435,414,30,48,9,0,13,340,19,51,410,88,Yes
Springfield Middle School,Battle Creek Public Schools,"1023 Avenue A, Springfield, MI 49037, United States",42.325478,-85.2475807,523,39,27,15,8,11,378,24,77,479,84,Yes
Valley View Elementary School,Rockford Public Schools,"405 Summit Ave NE, Rockford, MI 49341, United States",43.1285209,-85.5664825,613,92,0,3,1,4,456,35,69,560,88,No
Valley View Elementary School,Battle Creek Public Schools,"960 Avenue A, Springfield, MI 49037, United States",42.3267892,-85.2450553,613,92,0,3,1,4,456,35,69,560,88,No
Verona Elementary School,Battle Creek Public Schools,"825 Capital Ave NE, Battle Creek, MI 49017, United States",42.3315019,-85.156191,309,41,30,15,0,14,290,7,31,328,91,Yes
Ann J. Kellogg School,Battle Creek Public Schools,"306 Champion St, Battle Creek, MI 49037, United States",42.327265,-85.1927109,331,19,52,18,0,11,287,10,21,318,93,Yes
Lamora Park School,Battle Creek Public Schools,"65 N Woodlawn Ave, Battle Creek, MI 49037, United States",42.3500222,-85.24247,180,72,7,8,0,13,196,11,12,219,95,No
Athens Junior/Senor High School,Athens Area Schools,"300 E Holcomb St, Athens, MI 49011, United States",42.0857124,-85.2316513,314,91,1,1,0,7,103,9,196,308,36,No
East Leroy Elementary School,Athens Area Schools,"4320 K Dr S, East Leroy, MI 49051, United States",42.1658248,-85.2104644,252,89,2,1,0,8,115,13,120,248,52,No
Beadle Lake Elementary School,Harper Creek Community Schools,"8175 C Dr N, Battle Creek, MI 49014, United States",42.2729016,-85.1365139,312,83,3,3,0,11,181,24,126,331,62,No
Harper Creek Middle School,Harper Creek Community Schools,"7290 B Dr N, Battle Creek, MI 49014, United States",42.260331,-85.1538521,845,87,2,5,1,6,353,59,482,894,46,No
Harper Creek High School,Harper Creek Community Schools,"12677 Beadle Lake Rd, Battle Creek, MI 49014, United States",42.2558328,-85.1522808,884,86,2,6,1,5,250,44,591,885,33,No
Sonoma Elementary,Harper Creek Community Schools,"4640 B Dr S, Battle Creek, MI 49015, United States",42.2313556,-85.2058278,325,91,1,3,1,5,119,24,201,344,42,No
Wattles Park Elementary School,Harper Creek Community Schools,"132 S Wattles Rd, Battle Creek, MI 49014, United States",42.3067741,-85.1119172,342,84,4,4,2,6,122,20,197,339,42,No
Homer Community High School,Homer Community School District,"403 S Hillsdale St, Homer, MI 49245, United States",42.1419743,-84.8099558,312,95,0,3,1,2,122,23,170,315,46,No
Lakeview High School,Lakeview Sch. District (Calhoun),"15 Arbor St, Battle Creek, MI 49015, United States",42.3034261,-85.2132922,1349,64,9,9,9,9,498,104,781,1383,44,No
Lakeview High School,Lakeview Public Schools (Macomb),"21100 E Eleven Mile Rd, St Clair Shores, MI 48081, United States",42.4952271,-82.903808,1349,64,9,9,9,9,498,104,781,1383,44,No
Lakeview High School,Lakeview Community Schools (Montcalm),"Lakeview Community Schools, MI, USA",43.4230145,-85.2308414,1349,64,9,9,9,9,498,104,781,1383,44,No
Minges Brook School,Lakeview Sch. District (Calhoun),"435 Lincoln Hill Dr, Battle Creek, MI 49015, United States",42.2764105,-85.1957816,336,59,18,5,7,11,180,26,107,313,66,No
Prairieview School,Lakeview Sch. District (Calhoun),"1675 Iroquois Ave, Battle Creek, MI 49015, United States",42.3004556,-85.2272264,288,58,9,15,7,11,206,24,67,297,77,No
Riverside Elementary School,Waterford School District,"5280 Farm Rd, Waterford Twp, MI 48327, United States",42.656574,-83.391834,396,67,12,14,4,4,182,57,169,408,59,No
Riverside Elementary School,Lakeview Sch. District (Calhoun),"650 Riverside Dr, Battle Creek, MI 49015, United States",42.2914511,-85.1907023,396,67,12,14,4,4,182,57,169,408,59,No
Riverside Elementary School,Constantine Public School District,"600 W 6th St, Constantine, MI 49042, United States",41.8336444,-85.6730325,396,67,12,14,4,4,182,57,169,408,59,No
Westlake Elementary School,Lakeview Sch. District (Calhoun),"1184 S 24th St, Battle Creek, MI 49015, United States",42.2871793,-85.2280246,392,70,4,6,12,8,165,27,235,427,45,No
Lakeview Middle School,Lakeview Sch. District (Calhoun),"300 S 28th St, Battle Creek, MI 49015, United States",42.2958534,-85.2301847,1287,64,10,8,8,11,618,98,623,1339,53,No
Lakeview Middle School,Lakeview Community Schools (Montcalm),"516 Washington St, Lakeview, MI 48850, United States",43.4398117,-85.2778778,1287,64,10,8,8,11,618,98,623,1339,53,No
Mar Lee School,Mar Lee School District,"21236 H Dr N, Marshall, MI 49068, United States",42.3043817,-84.8837225,299,90,4,3,0,2,114,31,138,283,51,No
Gordon Elementary School,Marshall Public Schools,"400 N Gordon St, Marshall, MI 49068, United States",42.2764599,-84.9516807,288,91,3,2,1,2,78,13,193,284,32,No
Hughes Elementary School,Marshall Public Schools,"103 W Hughes St, Marshall, MI 49068, United States",42.2605601,-84.9577744,302,88,2,6,0,4,136,22,150,308,51,No
Michigan Youth Challenge Academy,Marshall Public Schools,"5500 Armstrong Rd, Battle Creek, MI 49037, United States",42.3434562,-85.2878875,119,50,25,14,1,9,46,2,76,124,39,Yes
Marshall Middle School,Marshall Public Schools,"100 E Green St, Marshall, MI 49068, United States",42.2707957,-84.9577953,594,78,13,5,1,3,217,36,309,562,45,No
Marshall High School,Marshall Public Schools,"701 N Marshall Ave, Marshall, MI 49068, United States",42.2858934,-84.9578665,846,82,12,4,2,1,254,56,522,832,37,No
Walters Elementary,Marshall Public Schools,"705 N Marshall Ave, Marshall, MI 49068, United States",42.2862592,-84.9607659,332,87,2,6,2,4,115,23,222,360,38,No
Pennfield Dunlap Elementary,Pennfield Schools,"8465 Pennfield Rd, Battle Creek, MI 49017, United States",42.3706592,-85.1330601,489,84,3,7,1,6,223,30,206,459,55,No
Pennfield Middle School,Pennfield Schools,"8587 Pennfield Rd, Battle Creek, MI 49017, United States",42.370613,-85.1310501,593,81,6,4,0,9,253,30,270,553,51,No
North Pennfield Elementary,Pennfield Schools,"7422 Poorman Rd, Battle Creek, MI 49017, United States",42.4057998,-85.1539764,197,86,3,4,1,7,99,21,101,221,54,No
Pennfield Purdy School,Pennfield Schools,"6510 Purdy Dr, Battle Creek, MI 49017, United States",42.3531512,-85.1704947,213,86,3,2,0,8,137,16,105,258,59,No
Pennfield Senior High School,Pennfield Schools,"8299 Pennfield Rd, Battle Creek, MI 49017, United States",42.3702024,-85.1365827,658,84,6,4,1,5,276,39,424,739,43,No
Tekonsha Schools,Tekonsha Community Schools,"245 S Elm St, Tekonsha, MI 49092, United States",42.0900723,-84.989421,257,89,2,6,1,2,135,20,94,249,62,No
Union City Middle School,Union City Community Schools,"435 St Joseph St, Union City, MI 49094, United States",42.060227,-85.1426893,324,94,0,2,0,4,172,34,142,348,59,No
Union City High School,Union City Community Schools,"430 St Joseph St, Union City, MI 49094, United States",42.0618203,-85.1423909,321,96,0,0,1,3,125,21,153,299,49,No
Union City Elementary School,Union City Community Schools,"601 Walnut Ln, Union City, MI 49094, United States",42.0706124,-85.1430318,436,93,0,1,0,5,203,31,156,390,60,No
Battle Creek Montessori Academy,Battle Creek Montessori Academy,"399 N 20th St, Springfield, MI 49037, United States",42.3205623,-85.2203316,166,60,19,7,4,11,118,15,29,162,82,No
Arbor Academy,Arbor Academy,"55 Arbor St, Battle Creek, MI 49015, United States",42.3004811,-85.2129761,191,44,27,17,1,10,165,9,38,212,82,Yes
Endeavor Charter Academy,Endeavor Charter Academy,"380 Helmer Rd N, Springfield, MI 49037, United States",42.324256,-85.238079,619,51,24,6,5,13,477,53,122,652,81,No
Marshall Academy,Marshall Academy,"18203 Homer Rd, Marshall, MI 49068, United States",42.251529,-84.9397806,254,74,19,4,0,4,140,20,115,275,58,No
Brookside Learning Center,Lewis Cass ISD,"61662 Dailey Rd, Cassopolis, MI 49031, United States",41.9027295,-86.0886317,34,91,0,3,0,6,23,3,9,35,74,No
North Pointe Center,Lewis Cass ISD,"704 Orchard St, Dowagiac, MI 49047, United States",41.9910601,-86.1084787,48,69,19,6,0,6,50,3,18,71,75,No
Ross Beatty High School,Cassopolis Public Schools,"22721 Diamond Cove St, Cassopolis, MI 49031, United States",41.8960033,-86.0030679,416,63,26,3,4,6,214,35,144,393,63,No
Sam Adams Elementary School,Cassopolis Public Schools,"101 S East St, Cassopolis, MI 49031, United States",41.9109438,-86.0063794,473,57,13,7,2,22,282,33,143,458,69,No
Cassopolis Alternative Ed.,Cassopolis Public Schools,"725 Center St, Cassopolis, MI 49031, United States",41.9152393,-86.0034885,46,85,7,0,0,9,37,2,26,65,60,No
Dowagiac Middle School,Dowagiac Union School District,"57072 Riverside Dr, Dowagiac, MI 49047, United States",41.9685168,-86.0996344,470,60,12,14,0,14,345,42,132,519,75,No
Justus Gage Elementary School,Dowagiac Union School District,"301 Oak St, Dowagiac, MI 49047, United States",41.9882179,-86.1041576,290,62,7,14,0,18,206,25,48,279,83,No
Pathfinders Alternative Ed,Dowagiac Union School District,"501 N Paul St, Dowagiac, MI 49047, United States",41.9910364,-86.1221749,73,63,7,18,0,12,45,0,7,52,87,No
Patrick Hamilton Elementary,Dowagiac Union School District,"614 Spruce St, Dowagiac, MI 49047, United States",41.9862791,-86.1194826,267,49,21,12,0,18,222,16,30,268,89,Yes
Sister Lakes Elementary School,Dowagiac Union School District,"68079 M-152, Benton Harbor, MI 49022, United States",42.0853576,-86.2062225,180,53,1,37,0,9,167,10,26,203,87,No
Union High School,Grand Rapids Public Schools,"1800 Tremont Blvd NW, Grand Rapids, MI 49504, United States",42.9741588,-85.7126492,1047,14,31,47,1,8,358,55,179,592,70,Yes
Union High School,Dowagiac Union School District,"701 W Prairie Ronde St, Dowagiac, MI 49047, United States",41.9888411,-86.1203347,1047,14,31,47,1,8,358,55,179,592,70,Yes
Kincheloe Elementary School,Dowagiac Union School District,"25121 Gage St, Dowagiac, MI 49047, United States",42.0192298,-86.0514221,305,67,1,16,0,16,176,28,92,296,69,No
Eagle Lake Elementary School,Edwardsburg Public Schools,"23889 Ave C, Edwardsburg, MI 49112, United States",41.795712,-86.0278607,389,90,1,3,0,6,115,29,247,391,37,No
Edwardsburg Primary School,Edwardsburg Public Schools,"69100 Section St, Edwardsburg, MI 49112, United States",41.7951509,-86.0891277,383,92,1,1,0,5,124,26,237,387,39,No
Edwardsburg Middle School,Edwardsburg Public Schools,"69410 Section St, Edwardsburg, MI 49112, United States",41.7916579,-86.0897069,691,91,1,3,1,4,161,43,482,686,30,No
Edwardsburg High School,Edwardsburg Public Schools,"69358 Section St, Edwardsburg, MI 49112, United States",41.791123,-86.0898649,852,90,2,4,2,4,195,42,622,859,28,No
Marcellus Elementary School,Marcellus Community Schools,"301 W Arbor St, Marcellus, MI 49067, United States",42.0243593,-85.8210432,336,90,2,3,1,5,183,32,102,317,68,No
Volinia Outcome Base School,Marcellus Community Schools,"54080 Gards Prairie Rd, Decatur, MI 49045, United States",42.0106926,-85.9541226,39,82,5,10,0,3,36,0,2,38,95,No
Marcellus High School,Marcellus Community Schools,"Marcellus Community Schools, MI, USA",42.0223551,-85.8281458,314,94,2,2,0,3,169,29,139,337,59,No
Beaver Island Community School,Beaver Island Community School,"37895 King's Hwy, Beaver Island, MI 49782, United States",45.74568,-85.5227065,50,98,0,0,0,2,12,6,28,46,39,No
Boyne City High School,Boyne City Public Schools,"1035 Boyne Ave, Boyne City, MI 49712, United States",45.2063132,-84.9985069,395,92,1,3,0,4,141,28,272,441,38,No
Boyne City Elementary School,Boyne City Public Schools,"930 Brockway St, Boyne City, MI 49712, United States",45.2079127,-84.9967253,496,92,0,2,2,4,213,58,204,475,57,No
Boyne City Middle School,Boyne City Public Schools,"1025 Boyne Ave, Boyne City, MI 49712, United States",45.2076115,-85.0005442,417,93,0,1,1,5,157,50,224,431,48,No
Morgan-Shaw School,Boyne City Public Schools,"321 S Park St, Boyne City, MI 49712, United States",45.210961,-85.0128212,25,84,0,4,0,12,16,1,7,24,71,No
Boyne Falls Public School,Boyne Falls Public School District,"1662 M-75, Boyne Falls, MI 49713, United States",45.181619,-84.9394122,150,85,1,0,1,14,111,15,55,181,70,No
Charlevoix Middle/ High School,Charlevoix Public Schools,"104 St Mary's Dr, Charlevoix, MI 49720, United States",45.3106959,-85.257835,539,90,1,2,1,5,160,26,298,484,38,No
East Jordan Elementary School,East Jordan Public Schools,"304 4th St, East Jordan, MI 49727, United States",45.1573074,-85.1225466,484,93,0,3,0,4,234,40,174,448,61,No
Concord Academy - Boyne,Concord Academy - Boyne,"401 E Dietz, Boyne City, MI 49712, United States",45.1914283,-84.9694669,184,91,1,2,0,6,46,18,74,138,46,No
Charlevoix Montessori Academy for the Arts,Charlevoix Montessori Academy for the Arts,"115 W Hurlbut St, Charlevoix, MI 49720, United States",45.3140432,-85.2598004,62,89,2,5,0,5,35,1,10,46,78,No
COP ESD Programs,Cheb-Otsego-Presque Isle ESD,"6065 Learning Ln, Indian River, MI 49749, United States",45.4617479,-84.611765,85,95,2,0,0,2,35,3,60,98,39,No
Cheboygan Area High School,Cheboygan Area Schools,"801 W Lincoln Ave, Cheboygan, MI 49721, United States",45.6344299,-84.4954757,696,84,0,2,0,14,306,49,341,696,51,No
East Elementary School,Iron Mountain Public Schools,"800 East E Street, Iron Mountain, MI 49801, United States",45.8145678,-88.0549256,117,91,0,3,3,4,192,20,87,299,71,No
East Elementary School,Cheboygan Area Schools,"440 Garfield Ave, Cheboygan, MI 49721, United States",45.6392631,-84.4695129,117,91,0,3,3,4,192,20,87,299,71,No
Cheboygan Virtual Academy,Cheboygan Area Schools,"7461 N Straits Hwy, Cheboygan, MI 49721, United States",45.571335,-84.523932,60,90,0,0,0,10,25,2,5,32,84,No
Cheboygan Intermediate School,Cheboygan Area Schools,"905 W Lincoln Ave, Cheboygan, MI 49721, United States",45.6318997,-84.4969064,655,83,1,2,0,14,352,51,193,596,68,No
Inland Lakes Elementary School,Inland Lakes Schools,"4363 S Straits Hwy, Indian River, MI 49749, United States",45.398794,-84.6259522,317,90,1,2,0,8,200,13,96,309,69,No
Inland Lakes Secondary School,Inland Lakes Schools,"Inland Lakes Schools, MI, USA",45.4327955,-84.5423304,424,92,0,1,1,6,184,24,188,396,53,No
Mackinaw City K-12 School,Mackinaw City Public Schools,"609 W Central Ave, Mackinaw City, MI 49701, United States",45.7810077,-84.7446513,159,83,3,3,1,9,64,8,73,145,50,No
Wolverine Elementary School,Wolverine Community School District,"5767 Ballard St, Wolverine, MI 49799, United States",45.2717992,-84.6063743,149,87,2,1,1,9,123,11,16,150,89,No
Rudyard Area Service Center,Eastern Upper Peninsula ISD,"26400 Arsenal St, Center Line, MI 48015, United States",42.488259,-83.0215885,34,56,0,0,3,41,31,4,15,50,70,No
Sault Area Middle School,Sault Ste. Marie Area Schools,"684 Marquette Ave, Sault Ste. Marie, MI 49783, United States",46.4796752,-84.3462982,491,63,1,0,1,35,218,42,222,482,54,No
Soo Township School,Sault Ste. Marie Area Schools,"Sault Ste. Marie Area Schools, MI, USA",46.4111164,-84.2627962,323,63,0,1,2,34,108,17,185,310,40,No
Sault Area High School,Sault Ste. Marie Area Schools,"904 Marquette Ave, Sault Ste. Marie, MI 49783, United States",46.4767407,-84.3382313,731,61,0,1,1,37,279,49,406,734,45,No
Malcolm High School,Sault Ste. Marie Area Schools,"5788 M-129, Sault Ste. Marie, MI 49783, United States",46.4225917,-84.3559227,90,46,0,0,0,54,78,10,10,98,90,Yes
DeTour High School,DeTour Area Schools,"202 S Division St, De Tour Village, MI 49725, United States",45.9909205,-83.9054525,97,69,0,1,0,30,24,8,23,55,58,No
Drummond Island Elem. School,DeTour Area Schools,"33800 S Townline Rd, Drummond, MI 49726, United States",46.0155108,-83.739413,47,81,2,0,0,17,24,2,14,40,65,No
Pickford Public Schools,Pickford Public Schools,"Pickford Public Schools, MI, USA",46.182659,-84.3085645,383,71,1,0,2,26,152,36,200,388,48,No
Rudyard Area Schools,Rudyard Area Schools,"Rudyard Area Schools, MI, USA",46.2035767,-84.7455817,684,61,4,1,1,34,352,57,199,608,67,No
Brimley Jr./Sr. High,Brimley Area Schools,"7134 M-221, Brimley, MI 49715, United States",46.4020886,-84.5732473,225,45,1,0,0,53,101,26,102,229,55,Yes
Whitefish Township School,Whitefish Township Schools,"7221 M-123, Paradise, MI 49768, United States",46.6104739,-85.0391144,26,92,4,0,0,4,27,0,15,42,64,No
Joseph K. Lumsden Bahweting Anishnabe Academy,Joseph K. Lumsden Bahweting Anishnabe Academy,"1301 Marquette Ave, Sault Ste. Marie, MI 49783, United States",46.4814015,-84.3313915,509,35,1,3,0,61,287,41,211,539,61,Yes
Ojibwe Charter School,Ojibwe Charter School,"Bay Mills Township, MI 49715, United States",46.4502824,-84.602741,105,11,3,0,1,86,81,10,13,104,88,Yes
Clare-Gladwin Area School,Clare-Gladwin Regional Education Service District,"4041 E Mannsiding Rd, Clare, MI 48617, United States",43.9632912,-84.7645855,46,96,2,2,0,0,52,4,25,81,69,No
Clare Primary School,Clare Public Schools,"205 E Wheaton Ave, Clare, MI 48617, United States",43.8236869,-84.7657465,607,94,0,2,0,4,287,33,284,604,53,No
Clare High School,Clare Public Schools,"306 Schoolcrest Ave, Clare, MI 48617, United States",43.8246201,-84.762309,419,95,1,1,1,2,151,31,277,459,40,No
Clare Middle School,Clare Public Schools,"209 E State St, Clare, MI 48617, United States",43.8229655,-84.7652537,453,94,1,2,1,2,198,41,245,484,49,No
Clare Pioneer High School,Clare Public Schools,"670 Ann Arbor Trail, Clare, MI 48617, United States",43.8264935,-84.7848832,33,100,0,0,0,0,32,2,7,41,83,No
Farwell Elementary School,Farwell Area Schools,"268 Ohio St, Farwell, MI 48622, United States",43.8369036,-84.8633898,478,93,1,4,0,3,242,18,88,348,75,No
Farwell High School,Farwell Area Schools,"480 E Ohio St, Farwell, MI 48622, United States",43.8357163,-84.8619345,397,94,1,3,1,2,268,34,183,485,62,No
Farwell Middle School,Farwell Area Schools,"500 Ohio St, Farwell, MI 48622, United States",43.8364556,-84.8598563,365,93,1,2,1,4,225,26,110,361,70,No
Farwell Timberland Alternative High School,Farwell Area Schools,"2655 W Ludington Dr, Farwell, MI 48622, United States",43.8553214,-84.901691,51,82,4,6,0,8,32,1,10,43,77,No
Harrison Community High School,Harrison Community Schools,"420 W Spruce St, Harrison, MI 48625, United States",44.0184631,-84.808464,409,95,1,1,0,3,244,15,136,395,66,No
Harrison Middle School,Harrison Community Schools,"710 S 5th St, Harrison, MI 48625, United States",44.0151527,-84.8075518,324,95,1,1,0,2,245,13,75,333,77,No
Robert M. Larson Elementary School,Harrison Community Schools,"455 W Spruce St, Harrison, MI 48625, United States",44.0161256,-84.80825,307,94,0,3,0,4,284,13,48,345,86,No
Hillside Elementary School,Harrison Community Schools,"201 N 4th St, Harrison, MI 48625, United States",44.0202633,-84.805162,328,92,2,4,0,2,260,15,72,347,79,No
Hillside Elementary School,Farmington Public School District,"36801 11 Mile Rd, Farmington Hills, MI 48335, United States",42.4826422,-83.411485,328,92,2,4,0,2,260,15,72,347,79,No
Clinton County Education Center,Clinton County RESA,"4179 S S US 27, St Johns, MI 48879, United States",42.954534,-84.54196,44,91,7,2,0,0,26,0,67,93,28,No
Fuerstenau Early Childhood Center,DeWitt Public Schools,"205 W Washington St, Dewitt, MI 48820, United States",42.8410339,-84.5710525,245,87,0,6,1,5,43,3,206,252,18,No
DeWitt High School,DeWitt Public Schools,"13601 Panther Dr, Dewitt, MI 48820, United States",42.8188876,-84.5808443,1005,86,2,7,1,3,116,24,868,1008,14,No
Scott Elementary School,DeWitt Public Schools,"804 Wilson St, Dewitt, MI 48820, United States",42.848186,-84.5737703,432,85,1,8,1,5,73,10,367,450,18,No
DeWitt Junior High School,DeWitt Public Schools,"2957 W Herbison Rd, Dewitt, MI 48820, United States",42.8248374,-84.5812833,487,84,2,8,2,4,90,19,422,531,21,No
Schavey Road Elementary School,DeWitt Public Schools,"1721 Schavey Rd, Dewitt, MI 48820, United States",42.8213886,-84.5875458,429,87,3,6,2,4,83,12,394,489,19,No
Herbison Woods Elementary School,DeWitt Public Schools,"Pride Dr, Dewitt, MI 48820, United States",42.8224213,-84.5836962,511,85,1,8,1,5,84,14,365,463,21,No
Waldron Elementary and Middle School,Fowler Public Schools,"11214 W Kent St, Fowler, MI 48835, United States",43.007441,-84.7429156,334,95,1,3,1,0,76,10,240,326,26,No
Fowler High School,Fowler Public Schools,"700 S Main St, Fowler, MI 48835, United States",42.9962544,-84.7425296,185,96,1,1,2,1,17,10,144,171,16,No
Bath High School,Bath Community Schools,"6175 Clark Rd, Bath Twp, MI 48808, United States",42.8157388,-84.4398824,337,86,3,5,1,5,116,17,224,357,37,No
Bath Elementary School,Bath Community Schools,"13789 Webster Rd, Bath Twp, MI 48808, United States",42.8156813,-84.4475644,507,83,1,8,1,7,238,43,274,555,51,No
Bath Middle School,Bath Community Schools,"13675 Webster Rd, Bath Twp, MI 48808, United States",42.817454,-84.4465425,258,86,1,6,1,6,86,19,147,252,42,No
E.E. Knight Elementary School,Ovid-Elsie Area Schools,"215 Tyler Dr, Elsie, MI 48831, United States",43.0902222,-84.3923634,441,92,0,6,0,2,131,24,153,308,50,No
Ovid-Elsie Middle School,Ovid-Elsie Area Schools,"4041 N Hollister Rd, Elsie, MI 48831, United States",43.0469245,-84.3878402,356,97,0,3,0,0,139,29,223,391,43,No
Leonard Elementary School,Troy School District,"4401 Tallman Dr, Troy, MI 48085, United States",42.583642,-83.14086,460,54,5,4,34,4,186,32,136,354,62,No
Leonard Elementary School,Oxford Community Schools,"335 E Elmwood St, Leonard, MI 48367, United States",42.8663978,-83.1364517,460,54,5,4,34,4,186,32,136,354,62,No
Leonard Elementary School,Ovid-Elsie Area Schools,"732 Mabbit Rd, Ovid, MI 48866, United States",43.0096244,-84.3631744,460,54,5,4,34,4,186,32,136,354,62,No
Ovid-Elsie High School,Ovid-Elsie Area Schools,"8989 E Colony Rd, Elsie, MI 48831, United States",43.045733,-84.389087,477,95,0,3,2,0,141,25,291,457,36,No
Pewamo-Westphalia Elementary School,Pewamo-Westphalia Community Schools,"5101 Clintonia Rd, Westphalia, MI 48894, United States",42.9427795,-84.8362096,179,83,1,13,1,2,61,15,100,176,43,No
Wilson Center,St. Johns Public Schools,"101 W Cass St, St Johns, MI 48879, United States",42.9998811,-84.5592178,52,77,4,15,0,4,33,0,15,48,69,No
Eureka School,St. Johns Public Schools,"7550 N Welling Rd, St Johns, MI 48879, United States",43.0970395,-84.5129325,153,84,0,11,0,6,44,13,87,144,40,No
Gateway Elementary School,St. Johns Public Schools,"915 N Lansing St, St Johns, MI 48879, United States",43.0112047,-84.5646364,336,85,0,10,1,4,168,16,132,316,58,No
St. Johns Middle School,St. Johns Public Schools,"900 W Townsend Rd, St Johns, MI 48879, United States",42.9882782,-84.5700516,739,88,1,7,0,4,182,25,505,712,29,No
Oakview Elementary School,St. Johns Public Schools,"1400 S Clinton Ave, St Johns, MI 48879, United States",42.9886699,-84.5595571,347,91,1,5,0,3,125,19,179,323,45,No
Oakview Elementary School,"Muskegon, Public Schools of the City of","1420 Madison St, Muskegon, MI 49442, United States",43.2264699,-86.2187877,347,91,1,5,0,3,125,19,179,323,45,No
St. Johns High School,St. Johns Public Schools,"501 W Sickles St, St Johns, MI 48879, United States",42.9913509,-84.566291,1009,89,1,7,1,4,216,26,736,978,25,No
Riley Elementary School,St. Johns Public Schools,"5935 W Pratt Rd, Dewitt, MI 48820, United States",42.900206,-84.640527,270,90,2,6,0,3,87,16,222,325,32,No
Grayling Elementary School,Crawford AuSable Schools,"306 Plum St, Grayling, MI 49738, United States",44.6656567,-84.70673,695,93,0,3,1,3,415,39,255,709,64,No
Grayling High School,Crawford AuSable Schools,"1135 N Old 27, Grayling, MI 49738, United States",44.700721,-84.730561,492,90,0,4,2,4,235,27,228,490,53,No
Great Lakes On-line Education,Crawford AuSable Schools,"1135 Old US 27 Rd, Grayling, MI 49738, United States",44.5837898,-84.7021713,63,87,2,6,3,2,41,0,19,60,68,No
Grayling Middle School,Crawford AuSable Schools,"500 Spruce St, Grayling, MI 49738, United States",44.6642655,-84.7147155,348,89,1,6,1,3,181,28,151,360,58,No
Escanaba Area Public High School,Escanaba Area Public Schools,"500 S Lincoln Rd, Escanaba, MI 49829, United States",45.7408526,-87.0813059,716,93,1,1,1,5,237,46,430,713,40,No
Escanaba Upper Elementary,Escanaba Area Public Schools,"1500 Ludington St, Escanaba, MI 49829, United States",45.746173,-87.0692905,542,90,0,2,1,7,231,45,228,504,55,No
Lemmer Elementary School,Escanaba Area Public Schools,"700 S 20th St, Escanaba, MI 49829, United States",45.7372251,-87.0758648,342,90,0,2,1,7,175,11,117,303,61,No
Escanaba Student Success Center,Escanaba Area Public Schools,"1620 Ludington St, Escanaba, MI 49829, United States",45.7458894,-87.0708958,57,88,0,4,0,9,43,4,13,60,78,No
Soo Hill Elementary School,Escanaba Area Public Schools,"5219 18th Rd, Escanaba, MI 49829, United States",45.7969043,-87.1048058,177,94,2,1,0,4,53,12,114,179,36,No
Webster Elementary School,Livonia Public Schools School District,"32401 Pembroke St, Livonia, MI 48152, United States",42.4326154,-83.3661007,309,74,1,2,20,4,123,11,38,172,78,No
Webster Elementary School,Escanaba Area Public Schools,"1213 N 19th St, Escanaba, MI 49829, United States",45.7619486,-87.0747604,309,74,1,2,20,4,123,11,38,172,78,No
Gladstone Area Middle School,Gladstone Area Schools,"2100 M-35 Highway, Gladstone, MI 49837, United States",45.8675454,-87.0604407,341,93,1,0,0,6,119,13,197,329,40,No
Gladstone Area High School,Gladstone Area Schools,"300 S 10th St, Gladstone, MI 49837, United States",45.8431989,-87.0212795,492,87,1,1,0,11,147,15,351,513,32,No
Cameron Elementary School,Gladstone Area Schools,"803 P 5, Gladstone, MI 49837, United States",45.8565176,-87.0490649,403,93,1,1,0,5,159,15,202,376,46,No
James T. Jones Elementary School,Gladstone Area Schools,"400 S 10th St, Gladstone, MI 49837, United States",45.8429984,-87.0207579,340,92,0,1,1,6,157,13,202,372,46,No
Tri-Township School,Rapid River Public Schools,"10070 US-2, Rapid River, MI 49878, United States",45.914282,-86.92664,349,81,1,1,0,17,142,23,190,355,46,No
Big Bay De Noc School,Big Bay De Noc School District,"8928 00.25 Road, Cooks, MI 49817, United States",45.8688554,-86.5245927,209,76,0,3,0,22,95,14,57,166,66,No
Bark River-Harris Jr/Sr High School,Bark River-Harris School District,"W471 US Highway 2, 41, Harris, MI 49845, United States",45.7023805,-87.3448971,316,87,0,1,0,12,126,28,172,326,47,No
Mid Peninsula School,Mid Peninsula School District,"5055 St Nicholas 31st Rd, Rock, MI 49880, United States",45.9848976,-87.1144332,184,96,0,0,1,3,80,15,61,156,61,No
Dickinson-Iron Special Education,Dickinson-Iron ISD,"1074 Pyle Dr, Kingsford, MI 49802, United States",45.804694,-88.086381,43,100,0,0,0,0,44,7,15,66,77,No
Central Middle School,Port Huron Area School District,"200 32nd St, Port Huron, MI 48060, United States",42.983158,-82.464533,911,73,12,9,1,6,38,7,78,123,37,No
Central Middle School,Iron Mountain Public Schools,"217 W Hughitt St, Iron Mountain, MI 49801, United States",45.8192023,-88.0689845,911,73,12,9,1,6,38,7,78,123,37,No
Central Middle School,Forest Hills Public Schools,"Forest Hills Public Schools, MI, USA",42.9506646,-85.4994192,911,73,12,9,1,6,38,7,78,123,37,No
Iron Mountain High School,Iron Mountain Public Schools,"300 W B St, Iron Mountain, MI 49801, United States",45.8180129,-88.0704008,301,91,0,3,1,5,98,10,192,300,36,No
Norway High School,Norway-Vulcan Area Schools,"300 Section St, Norway, MI 49870, United States",45.782724,-87.902297,214,96,1,1,0,2,80,18,125,223,44,No
Kingsford High School,Breitung Township School District,"2000 Pyle Dr, Kingsford, MI 49802, United States",45.8051943,-88.1038804,543,92,0,3,1,4,172,35,348,555,37,No
Woodland Elementary School,Portage Public Schools,"1401 Woodland Dr, Portage, MI 49024, United States",42.2110544,-85.6055819,390,73,6,7,4,10,307,46,365,718,49,No
Woodland Elementary School,Avondale School District,"6465 Livernois Rd, Troy, MI 48098, United States",42.6140633,-83.1516667,390,73,6,7,4,10,307,46,365,718,49,No
North Dickinson School,North Dickinson County Schools,"W6588 M-69, Felch, MI 49831, United States",46.0112792,-87.9599363,276,96,0,0,0,4,94,22,136,252,46,No
Bellevue Elementary School,Bellevue Community Schools,"904 W Capital Ave, Bellevue, MI 49021, United States",42.4443038,-85.0282867,283,92,4,1,0,3,215,18,103,336,69,No
Bellevue Jr/Sr High School,Bellevue Community Schools,"576 Love Rd, Bellevue, MI 49021, United States",42.4523612,-85.0265218,297,95,2,2,0,1,128,10,126,264,52,No
Charlotte Senior High School,Charlotte Public Schools,"378 State St, Charlotte, MI 48813, United States",42.5584421,-84.8510805,795,92,2,4,1,1,220,28,512,760,33,No
Charlotte Upper Elementary,Charlotte Public Schools,"1068 Carlisle Hwy, Charlotte, MI 48813, United States",42.5545437,-84.8563074,523,90,0,6,0,3,225,30,274,529,48,No
Parkview Elementary School,Wyoming Public Schools,"2075 Lee St SW, Wyoming, MI 49519, United States",42.9240873,-85.7171507,511,23,12,56,2,7,181,17,237,435,46,Yes
Parkview Elementary School,Novi Community School District,"45825 W 11 Mile Rd, Novi, MI 48374, United States",42.4795153,-83.4998307,511,23,12,56,2,7,181,17,237,435,46,Yes
Parkview Elementary School,Charlotte Public Schools,"301 E Kalamo Hwy, Charlotte, MI 48813, United States",42.5392208,-84.8314409,511,23,12,56,2,7,181,17,237,435,46,Yes
Greyhound Central Elementary School,Eaton Rapids Public Schools,"912 Greyhound Dr, Eaton Rapids, MI 48827, United States",42.5026044,-84.6402727,157,91,1,4,0,4,59,6,55,120,54,No
Eaton Rapids High School,Eaton Rapids Public Schools,"800 State St, Eaton Rapids, MI 48827, United States",42.5069802,-84.6372979,792,89,1,6,2,2,308,78,414,800,48,No
Lockwood Elementary School,Eaton Rapids Public Schools,"810 Greyhound Dr, Eaton Rapids, MI 48827, United States",42.5047501,-84.6406029,392,88,1,7,1,3,180,39,165,384,57,No
Eaton Rapids Middle School,Eaton Rapids Public Schools,"815 Greyhound Dr, Eaton Rapids, MI 48827, United States",42.5040347,-84.6382074,527,90,1,6,1,2,214,57,226,497,55,No
Greyhound Intermediate School,Eaton Rapids Public Schools,"805 Greyhound Dr, Eaton Rapids, MI 48827, United States",42.5048104,-84.6379527,423,88,2,8,0,3,228,59,166,453,63,No
Kenneth T. Beagle Elementary School,Grand Ledge Public Schools,"600 W South St, Grand Ledge, MI 48837, United States",42.7469962,-84.7578877,545,87,2,6,1,4,175,45,318,538,41,No
C.W. Neff Early Childhood and Kindergarten Center,Grand Ledge Public Schools,"950 Jenne St, Grand Ledge, MI 48837, United States",42.746309,-84.750245,416,79,4,8,3,6,106,16,272,394,31,No
Delta Center Elementary School,Grand Ledge Public Schools,"305 S Canal Rd, Lansing, MI 48917, United States",42.730947,-84.6609755,634,75,6,6,9,5,154,29,463,646,28,No
Grand Ledge High School,Grand Ledge Public Schools,"820 Spring St, Grand Ledge, MI 48837, United States",42.746862,-84.7519949,1693,82,6,8,2,2,289,72,1338,1699,21,No
Eaton County Youth Facility,Grand Ledge Public Schools,"822 Courthouse Dr, Charlotte, MI 48813, United States",42.5831211,-84.8478,38,68,13,13,0,5,21,1,9,31,71,No
Wacousta Elementary School,Grand Ledge Public Schools,"9135 Herbison Rd, Eagle, MI 48822, United States",42.8259678,-84.7032658,483,87,3,8,1,2,140,17,366,523,30,No
Leon W. Hayes Middle School,Grand Ledge Public Schools,"12620 Nixon Rd, Grand Ledge, MI 48837, United States",42.7503949,-84.6998584,792,83,5,6,4,3,177,47,606,830,27,No
Willow Ridge Elementary School,Grand Ledge Public Schools,"12840 Nixon Rd, Grand Ledge, MI 48837, United States",42.7536794,-84.6993495,515,75,11,5,3,6,104,37,391,532,27,No
Fuller Street Elementary School,Maple Valley Schools,"251 Fuller St, Nashville, MI 49073, United States",42.5981874,-85.0973566,250,95,0,2,0,2,142,22,92,256,64,No
Maple Valley Jr/Sr High School,Maple Valley Schools,"11090 Nashville Hwy, Vermontville, MI 49096, United States",42.6116606,-85.0547679,463,93,2,3,2,1,222,21,244,487,50,No
Maplewood School,Maple Valley Schools,"170 N Seminary St, Vermontville, MI 49096, United States",42.6302106,-85.0213612,277,94,1,3,0,3,168,15,116,299,61,No
Fern Persons Elementary School,Olivet Community Schools,"4425 Butterfield Hwy, Olivet, MI 49076, United States",42.435882,-84.9216674,355,96,1,2,0,1,130,25,213,368,42,No
Olivet High School,Olivet Community Schools,"255 1st St, Olivet, MI 49076, United States",42.4464856,-84.916818,540,94,0,3,1,2,149,25,375,549,32,No
Potterville Elementary School,Potterville Public Schools,"Potterville, MI 48876, United States",42.6304999,-84.7342678,333,86,6,3,2,3,150,16,151,317,52,No
Potterville High School,Potterville Public Schools,"422 High St, Potterville, MI 48876, United States",42.6312168,-84.7364417,245,90,2,5,1,1,87,16,162,265,39,No
Potterville Middle School,Potterville Public Schools,"420 High St, Potterville, MI 48876, United States",42.6305825,-84.7352419,274,88,5,5,1,1,108,16,139,263,47,No
Island City Academy,Island City Academy,"6421 S Clinton Trail, Eaton Rapids, MI 48827, United States",42.474146,-84.6582114,204,91,0,6,0,2,50,12,141,203,31,No
Relevant Academy of Eaton County,Relevant Academy of Eaton County,"220 Lamson St, Grand Ledge, MI 48837, United States",42.7497296,-84.7485147,106,86,4,6,0,5,71,4,39,114,66,No
Insight School of Michigan,Insight School of Michigan,"526 S Creyts Rd suite a, Lansing, MI 48911, United States",42.7276812,-84.6434469,767,73,15,7,0,5,541,56,191,788,76,No
Harbor Springs High School,Harbor Springs School District,"500 N Spring St, Harbor Springs, MI 49740, United States",45.4323408,-84.9863085,284,87,0,3,0,10,51,11,214,276,22,No
Shay Elementary School,Harbor Springs School District,"175 E Lake St, Harbor Springs, MI 49740, United States",45.4358346,-84.9881794,159,86,0,3,1,10,27,6,138,171,19,No
Harbor Springs Middle School,Harbor Springs School District,"800 S State St, Harbor Springs, MI 49740, United States",45.436448,-84.989809,218,88,0,2,0,10,24,11,130,165,21,No
Blackbird Elementary School,Harbor Springs School District,"421 E Lake St, Harbor Springs, MI 49740, United States",45.4364534,-84.9850318,181,87,0,2,1,9,28,6,120,154,22,No
Alanson Public School,Alanson Public Schools,"7400 North St, Alanson, MI 49706, United States",45.4441015,-84.7898948,261,82,1,3,1,13,145,20,65,230,72,No
Pellston Elementary School,Pellston Public Schools,"114 Zipf St, Pellston, MI 49769, United States",45.5526669,-84.7782425,218,79,0,1,0,19,132,20,62,214,71,No
Pellston Middle/High School,Pellston Public Schools,"172 Park St, Pellston, MI 49769, United States",45.5530135,-84.7814215,286,76,2,1,0,22,140,23,114,277,59,No
Petoskey High School,Public Schools of Petoskey,"1500 Hill St, Petoskey, MI 49770, United States",45.3709356,-84.9361816,951,86,1,2,1,9,252,51,685,988,31,No
Petoskey Middle School,Public Schools of Petoskey,"801 Northmen Dr, Petoskey, MI 49770, United States",45.369553,-84.9322807,704,87,0,1,1,11,195,51,432,678,36,No
Sheridan School,Public Schools of Petoskey,"1415 Howard St, Petoskey, MI 49770, United States",45.3637541,-84.9550322,281,87,0,1,2,10,79,16,177,272,35,No
Petoskey Montessori Elem. School,Public Schools of Petoskey,"1560 E Mitchell Rd, Petoskey, MI 49770, United States",45.3737004,-84.9380761,35,83,0,9,0,9,2,2,29,33,12,No
Concord Academy - Petoskey,Concord Academy - Petoskey,"2468 Atkins Rd, Petoskey, MI 49770, United States",45.361338,-84.917896,180,88,0,3,1,8,75,9,97,181,46,No
Special Education Services-South,Genesee ISD,"5198 Pilgrim Rd, Flint, MI 48507, United States",42.9558969,-83.7216397,59,75,20,2,2,2,25,1,19,45,58,No
Marion D. Crouse Instr. Center,Genesee ISD,"3330 Luce Rd, Flushing, MI 48433, United States",43.0547823,-83.8006668,151,66,31,2,1,0,97,13,97,207,53,No
Elmer A. Knopf Learning Center,Genesee ISD,"1493 W Maple Ave, Flint, MI 48507, United States",42.958515,-83.71129,363,67,30,1,0,2,292,23,126,441,71,No
Durant Tuuri Mott School,"Flint, School District of the City of","1518 University Ave, Flint, MI 48504, United States",43.0146417,-83.7108296,672,12,78,4,0,6,583,14,39,636,94,Yes
Eisenhower School,"Flint, School District of the City of","1235 Pershing St, Flint, MI 48503, United States",43.0041832,-83.708954,354,31,60,1,0,9,295,1,12,308,96,Yes
Freeman School,"Flint, School District of the City of","4001 Ogema Ave, Flint, MI 48507, United States",42.9873175,-83.6606432,376,16,73,6,1,5,295,3,9,307,97,Yes
Gateway to College-Mott Community College,"Flint, School District of the City of","1401 E Court St, Flint, MI 48503, United States",43.0239372,-83.6673583,25,64,24,12,0,0,22,0,10,32,69,No
Brownell STEM Academy,"Flint, School District of the City of","6302 Oxley Dr, Flint, MI 48504, United States",43.0693679,-83.7278848,334,5,91,2,0,3,206,2,14,222,94,Yes
Holmes STEM Academy,"Flint, School District of the City of","6602 Oxley Dr, Flint, MI 48504, United States",43.070194,-83.72708,568,6,91,1,0,2,474,3,26,503,95,Yes
Neithercut Elementary School,"Flint, School District of the City of","2010 Crestbrook Ln, Flint, MI 48507, United States",42.9861981,-83.7052173,290,34,54,7,0,6,278,8,10,296,97,Yes
Northwestern High School,"Flint, School District of the City of","g2138 W Carpenter Rd, Flint, MI 48505, United States",43.0765585,-83.7194616,508,5,90,1,0,3,177,0,9,186,95,Yes
Pierce School,"Flint, School District of the City of","1101 W Vernon Dr, Flint, MI 48503, United States",43.0160634,-83.6614437,224,16,75,5,0,5,187,7,26,220,88,Yes
Potter School,"Flint, School District of the City of","2500 N Averill Ave, Flint, MI 48506, United States",43.039599,-83.64433,435,33,50,9,0,8,359,2,21,382,95,Yes
Doyle/Ryder School,"Flint, School District of the City of","1040 Saginaw St, Flint, MI 48503, United States",43.0261355,-83.6928431,348,11,86,1,0,3,275,5,8,288,97,Yes
Southwestern Classical Academy,"Flint, School District of the City of","1420 W 12th St, Flint, MI 48507, United States",42.9981036,-83.6995714,926,11,81,3,0,4,844,13,111,968,89,Yes
Accelerated Learning Academy,"Flint, School District of the City of","G2138 W Carpenter Rd, Flint, MI 48505, United States",43.0765507,-83.7194887,287,4,91,3,0,2,149,1,5,155,97,Yes
Grand Blanc Community High School,Grand Blanc Community Schools,"12500 Holly Rd, Grand Blanc, MI 48439, United States",42.9210071,-83.6296802,2641,73,15,4,4,5,642,111,1941,2694,28,No
Indian Hill Elementary School,Grand Blanc Community Schools,"11240 Woodbridge Dr, Grand Blanc, MI 48439, United States",42.9337959,-83.6282577,494,73,11,4,5,8,116,34,345,495,30,No
Myers Elementary School,Taylor School District,"Taylor, MI 48180, United States",42.1864481,-83.2979347,326,11,76,4,0,10,147,31,328,506,35,Yes
Myers Elementary School,Grand Blanc Community Schools,"6085 Sun Valley Dr, Grand Blanc, MI 48439, United States",42.949807,-83.5895747,326,11,76,4,0,10,147,31,328,506,35,Yes
Cook Elementary School,Grand Blanc Community Schools,"4433 E Cook Rd, Grand Blanc, MI 48439, United States",42.9026193,-83.6154699,338,72,11,5,6,6,78,11,278,367,24,No
McGrath Elementary School,Grand Blanc Community Schools,"5288 Todd St, Grand Blanc, MI 48439, United States",42.9507901,-83.6655852,354,69,17,3,1,10,207,22,139,368,62,No
Reid Elementary School,Grand Blanc Community Schools,"2103 Reid Rd, Grand Blanc, MI 48439, United States",42.930774,-83.66785,492,76,15,2,2,5,129,36,296,461,36,No
Reid Elementary School,Goodrich Area Schools,"7501 Seneca St, Goodrich, MI 48438, United States",42.91939,-83.506073,492,76,15,2,2,5,129,36,296,461,36,No
Lillian G. Mason Elementary School,Grand Blanc Community Schools,"4455 E Cook Rd, Grand Blanc, MI 48439, United States",42.9027249,-83.6138612,420,76,12,3,5,4,69,13,283,365,22,No
Grand Blanc Middle School East,Grand Blanc Community Schools,"6100 Perry Rd, Grand Blanc, MI 48439, United States",42.9292439,-83.5887215,1031,75,11,4,4,6,197,36,781,1014,23,No
Grand Blanc Middle School West,Grand Blanc Community Schools,"1515 Reid Rd, Grand Blanc, MI 48439, United States",42.9319897,-83.6738437,974,75,14,3,2,6,345,56,554,955,42,No
Brendel Elementary School,Grand Blanc Community Schools,"223 Bush St, Grand Blanc, MI 48439, United States",42.9225031,-83.6296759,454,66,18,3,5,7,219,33,226,478,53,No
Moore Elementary School,Mt. Morris Consolidated Schools,"1201 Wisner St, Mt Morris, MI 48458, United States",43.1287034,-83.6876859,256,68,17,8,0,7,244,19,14,277,95,No
Genesee County Jail,Mt. Morris Consolidated Schools,"1002 Saginaw St, Flint, MI 48502, United States",43.0109384,-83.6869981,54,13,78,7,0,2,25,0,15,40,63,Yes
Genesee Valley Regional Center,Mt. Morris Consolidated Schools,"4287 Pasadena Ave, Flint, MI 48504, United States",43.0450778,-83.7643557,27,41,44,7,0,7,24,0,8,32,75,Yes
Montague Elementary School,Mt. Morris Consolidated Schools,"Mt. Morris Consolidated School District, MI, USA",43.1266336,-83.6880257,304,76,12,8,0,5,213,17,26,256,90,No
Mt. Morris Education and Community Center,Mt. Morris Consolidated Schools,"Mt Morris, MI 48458, United States",43.1188846,-83.6898679,217,67,18,6,0,9,103,7,32,142,77,No
Mt. Morris Middle School,Mt. Morris Consolidated Schools,"12356 Walter St, Mt Morris, MI 48458, United States",43.1227322,-83.6888389,432,65,18,5,0,11,289,29,74,392,81,No
Pinehurst Early Elementary,Mt. Morris Consolidated Schools,"1013 Pinehurst Blvd, Mt Morris, MI 48458, United States",43.1276497,-83.7009821,277,71,14,5,0,10,232,11,26,269,90,No
E.A. Johnson Memorial H.S.,Mt. Morris Consolidated Schools,"8041 Neff Rd, Mt Morris, MI 48458, United States",43.121128,-83.715599,539,61,18,4,1,17,400,38,110,548,80,No
Goodrich High School,Goodrich Area Schools,"8029 S Gale Rd, Goodrich, MI 48438, United States",42.917166,-83.531746,741,95,2,2,1,0,125,13,625,763,18,No
Goodrich Middle School,Goodrich Area Schools,"7480 Gale Rd, Goodrich, MI 48438, United States",42.920307,-83.539924,518,94,2,2,1,1,99,13,359,471,24,No
Oaktree Elementary School,Goodrich Area Schools,"7500 Gale Rd, Goodrich, MI 48438, United States",42.918432,-83.538177,524,97,0,2,0,2,113,19,411,543,24,No
Bendle High School,Bendle Public Schools,"2283 E Scottwood Ave, Burton, MI 48529, United States",42.9704994,-83.6601433,391,75,11,8,0,6,301,41,29,371,92,No
South Bendle Elementary School,Bendle Public Schools,"4341 Larkin Dr, Burton, MI 48529, United States",42.9652563,-83.6618164,281,79,5,5,0,11,216,16,24,256,91,No
Bendle Middle School,Bendle Public Schools,"2294 E Bristol Rd, Burton, MI 48529, United States",42.9739465,-83.6618589,252,79,8,9,0,5,232,27,12,271,96,No
West Bendle Elementary School,Bendle Public Schools,"4020 Cerdan Dr, Burton, MI 48529, United States",42.9728866,-83.6785974,262,78,6,5,0,11,249,16,23,288,92,No
Genesee High School,Genesee School District,"7347 N Genesee Rd, Genesee, MI 48437, United States",43.1152045,-83.6197279,314,82,8,5,0,5,188,25,63,276,77,No
Carman-Ainsworth Middle School,Carman-Ainsworth Community Schools,"1409 W Maple Ave, Flint, MI 48507, United States",42.9546544,-83.7069765,1031,34,51,5,1,10,692,63,198,953,79,Yes
Dye Elementary School,Carman-Ainsworth Community Schools,"1174 S Graham Rd, Flint, MI 48532, United States",43.0135115,-83.7578344,659,25,54,7,0,14,498,35,84,617,86,Yes
Gladys Dillon Elementary School,Carman-Ainsworth Community Schools,"1197 E Schumacher St, Burton, MI 48529, United States",42.9691976,-83.6857267,278,56,21,5,0,18,233,12,23,268,91,No
Randels Elementary School,Carman-Ainsworth Community Schools,"6022 Brobeck St, Flint, MI 48532, United States",42.9974028,-83.7927651,649,27,56,5,1,12,424,25,103,552,81,Yes
Rankin Elementary School,Carman-Ainsworth Community Schools,"3459 Mundy Ave G, Swartz Creek, MI 48473, United States",42.9172397,-83.7472155,337,60,20,9,1,12,266,23,39,328,88,No
Carman-Ainsworth High School,Carman-Ainsworth Community Schools,"1300 N Linden Rd, Flint, MI 48532, United States",43.025022,-83.771621,1410,26,62,3,1,8,845,77,410,1332,69,Yes
Bendle/Carman-Ainsworth Alternative Education,Carman-Ainsworth Community Schools,"1181 W Scottwood Ave, Flint, MI 48507, United States",42.9706306,-83.6996154,143,43,45,5,0,7,105,1,31,137,77,Yes
Genesee Early College,Carman-Ainsworth Community Schools,"432 Saginaw St #419, Flint, MI 48502, United States",43.0208157,-83.6911563,198,42,41,8,2,8,85,10,97,192,49,Yes
Tomek-Eastern Elem. School,Fenton Area Public Schools,"600 4th St, Fenton, MI 48430, United States",42.8018795,-83.6977433,460,90,0,4,2,3,125,27,291,443,34,No
Andrew G. Schmidt Middle School,Fenton Area Public Schools,"3255 Donaldson Dr, Fenton, MI 48430, United States",42.7871708,-83.7300412,802,94,0,2,1,3,191,46,562,799,30,No
North Road Elementary School,Fenton Area Public Schools,"525 North Rd, Fenton, MI 48430, United States",42.8035223,-83.7128175,428,89,2,5,0,3,178,20,245,443,45,No
State Road Elementary School,Fenton Area Public Schools,"1161 State Rd, Fenton, MI 48430, United States",42.7838973,-83.7133483,468,95,0,2,0,3,72,20,345,437,21,No
Fenton Senior High School,Fenton Area Public Schools,"3200 W Shiawassee Ave, Fenton, MI 48430, United States",42.7842979,-83.7344055,1124,93,1,2,1,3,209,43,915,1167,22,No
Ellen St. Campus,Fenton Area Public Schools,"404 W Ellen St, Fenton, MI 48430, United States",42.794477,-83.709067,76,88,1,7,1,3,24,4,37,65,43,No
Kate Dowdall Elementary School,Kearsley Community School District,"3333 Shillelagh Dr, Flint, MI 48506, United States",43.0567714,-83.60247,442,85,6,6,0,4,300,24,101,425,76,No
Leota Fiedler Elementary School,Kearsley Community School District,"6137 Nightingale Dr, Flint, MI 48506, United States",43.0692229,-83.5852262,410,87,6,3,0,4,327,27,129,483,73,No
Kearsley High School,Kearsley Community School District,"4302 Underhill Dr, Flint, MI 48506, United States",43.0707078,-83.609983,1041,79,12,6,1,2,602,74,354,1030,66,No
Weston Elementary School,Kearsley Community School District,"2499 Cashin St, Burton, MI 48509, United States",43.0467855,-83.6221851,400,82,4,6,0,8,320,32,96,448,79,No
Weston Elementary School,Imlay City Community Schools,"275 Weston St, Imlay City, MI 48444, United States",43.0198009,-83.0825097,400,82,4,6,0,8,320,32,96,448,79,No
Armstrong Middle School,Kearsley Community School District,"6161 Hopkins Rd, Flint, MI 48506, United States",43.0795633,-83.5908591,733,81,10,5,1,3,432,51,197,680,71,No
Elms Elementary School,Flushing Community Schools,"6125 Elms Rd, Flushing, MI 48433, United States",43.0934906,-83.8146838,430,85,7,4,0,5,206,23,180,409,56,No
Flushing High School,Flushing Community Schools,"5039 Deland Rd, Flushing, MI 48433, United States",43.0754929,-83.8441531,1303,84,9,3,1,3,413,77,843,1333,37,No
Flushing Middle School,Flushing Community Schools,"8100 Carpenter Rd, Flushing, MI 48433, United States",43.079775,-83.8352871,692,86,8,3,1,3,234,49,385,668,42,No
Seymour Elementary School,Flushing Community Schools,"3088 N Seymour Rd, Flushing, MI 48433, United States",43.0477555,-83.8593721,514,88,4,3,2,4,173,29,294,496,41,No
Springview Elementary School,Flushing Community Schools,"1233 Springview Dr, Flushing, MI 48433, United States",43.0716717,-83.8267359,389,68,19,5,3,6,204,36,197,437,55,No
Flushing Early Childhood Center,Flushing Community Schools,"409 Chamberlain St, Flushing, MI 48433, United States",43.0663484,-83.8499063,276,87,6,5,0,2,125,17,150,292,49,No
Atherton Jr. / Sr. High School,Atherton Community Schools,"3354 S Genesee Rd, Burton, MI 48519, United States",42.9799144,-83.6150899,446,57,33,4,0,7,296,25,111,432,74,No
Atherton Elementary School,Atherton Community Schools,"3444 S Genesee Rd, Burton, MI 48519, United States",42.9778044,-83.6154815,382,64,17,8,0,10,301,21,58,380,85,No
Atherton Vern Van Y Educational Center,Atherton Community Schools,"2400 Clarice Ave, Burton, MI 48519, United States",42.9928283,-83.6362686,73,62,16,15,0,7,57,2,16,75,79,No
Davison High School,Davison Community Schools,"1250 N Oak Rd, Davison, MI 48423, United States",43.024786,-83.501973,1509,89,2,5,0,5,425,84,1038,1547,33,No
Davison Middle School,Davison Community Schools,"600 S Dayton St, Davison, MI 48423, United States",43.0246602,-83.5235881,844,88,2,4,1,5,286,71,580,937,38,No
Hill Elementary School,Troy School District,"4600 Forsyth Dr, Troy, MI 48085, United States",42.586591,-83.095661,333,70,5,2,18,6,75,12,197,284,31,No
Hill Elementary School,Davison Community Schools,"404 Aloha St, Davison, MI 48423, United States",43.0325854,-83.5270927,333,70,5,2,18,6,75,12,197,284,31,No
Siple Elementary School,Davison Community Schools,"9286 E Coldwater Rd, Davison, MI 48423, United States",43.0911483,-83.5274124,424,85,1,9,0,5,203,38,156,397,61,No
Gates Elementary School,Davison Community Schools,"2359 S Irish Rd, Davison, MI 48423, United States",42.9951561,-83.5529182,577,83,6,6,1,5,260,35,266,561,53,No
Thomson Elementary School,Davison Community Schools,"617 E Clark St, Davison, MI 48423, United States",43.0265383,-83.5066052,350,87,3,5,0,5,139,18,173,330,48,No
Hahn Intermediate School,Davison Community Schools,"500 S Dayton St, Davison, MI 48423, United States",43.0257412,-83.5220962,903,87,3,5,1,5,354,67,509,930,45,No
A.C. Edgerton Elementary School,Clio Area School District,"11218 N Linden Rd, Clio, MI 48420, United States",43.1689409,-83.772962,377,92,2,1,1,5,133,32,170,335,49,No
Clio Area High School,Clio Area School District,"1 Mustang Dr, Clio, MI 48420, United States",43.1861803,-83.7285688,951,94,2,2,1,1,343,52,521,916,43,No
Clio Community High School,Clio Area School District,"420 N Mill St, Clio, MI 48420, United States",43.1810031,-83.7332895,125,88,2,4,0,6,81,5,36,122,70,No
George A. Lacure Elem. School,Clio Area School District,"12167 N Lewis Rd, Clio, MI 48420, United States",43.1830178,-83.6812881,378,91,2,2,1,4,204,44,123,371,67,No
George R. Carter Middle School,Clio Area School District,"301 Rogers Lodge Dr, Clio, MI 48420, United States",43.179372,-83.7305085,960,92,2,4,0,2,454,78,449,981,54,No
Glen Garner Elementary School,Clio Area School District,"10271 Clio Rd, Clio, MI 48420, United States",43.156334,-83.7356869,374,90,2,5,0,3,181,36,120,337,64,No
Gaines Elementary School,Swartz Creek Community Schools,"300 W Lansing St, Gaines, MI 48436, United States",42.8694324,-83.9116168,177,92,2,3,1,2,74,5,82,161,49,No
Morrish Elementary School,Swartz Creek Community Schools,"5055 W Maple Ave, Swartz Creek, MI 48473, United States",42.9568721,-83.7741637,437,83,4,5,1,6,184,24,234,442,47,No
Swartz Creek Middle School,Swartz Creek Community Schools,"8230 E Crapo St, Swartz Creek, MI 48473, United States",42.9516537,-83.839226,895,81,9,6,1,4,375,53,418,846,51,No
Swartz Creek High School,Swartz Creek Community Schools,"1 Dragon Dr, Swartz Creek, MI 48473, United States",42.9559115,-83.8428274,1188,84,9,4,1,3,460,76,623,1159,46,No
Syring Elementary School,Swartz Creek Community Schools,"5300 Oakview Dr, Swartz Creek, MI 48473, United States",42.9506958,-83.8520107,314,82,8,5,0,5,142,19,135,296,54,No
Elms Road Elementary School,Swartz Creek Community Schools,"3259 Elms Rd, Swartz Creek, MI 48473, United States",42.9785652,-83.8100433,435,67,18,6,1,8,251,21,164,436,62,No
Dieck Elementary School,Swartz Creek Community Schools,"2239 S Van Vleet Rd, Swartz Creek, MI 48473, United States",42.9941635,-83.8700866,282,80,7,6,2,5,147,11,116,274,58,No
Lake Fenton High School,Lake Fenton Community Schools,"4070 Lahring Rd, Linden, MI 48451, United States",42.8431943,-83.7501719,651,91,3,2,1,3,158,22,475,655,27,No
West Shore Elementary School,Lake Fenton Community Schools,"3076 Lahring Rd, Fenton, MI 48430, United States",42.8425795,-83.7317282,418,91,1,5,1,2,136,14,283,433,35,No
Lake Fenton Middle School,Lake Fenton Community Schools,"11425 Torrey Rd, Fenton, MI 48430, United States",42.8591067,-83.7273721,470,95,1,2,0,2,121,13,377,511,26,No
Hamady Middle School,Westwood Heights Schools,"3207 Finney Ct, Flint, MI 48504, United States",43.052397,-83.741873,153,8,85,2,0,5,140,3,20,163,88,Yes
Academy West Alternative Education,Westwood Heights Schools,"3400 N Jennings Rd, Flint, MI 48504, United States",43.0575839,-83.7512988,417,11,82,3,0,4,438,10,64,512,88,Yes
Colonel Donald McMonagle Elementary School,Westwood Heights Schools,"Westwood Heights Schools, Mt Morris Township, MI, USA",43.0721475,-83.7517851,394,15,76,3,0,6,377,13,43,433,90,Yes
Hamady Community High School,Westwood Heights Schools,"3223 W Carpenter Rd, Flint, MI 48504, United States",43.0729335,-83.7423792,313,5,93,1,0,1,280,16,52,348,85,Yes
Barhitte Elementary School,Bentley Community School District,"1180 N Belsay Rd, Burton, MI 48509, United States",43.0242988,-83.5923692,333,83,7,5,0,5,242,32,54,328,84,No
Bentley Senior High School,Bentley Community School District,"Bentley Community Schools, Burton, MI, USA",43.0200878,-83.5975882,289,78,9,7,1,6,174,18,110,302,64,No
Beecher High School,Beecher Community School District,"Beecher Community School District, MI, USA",43.0879833,-83.6880257,302,5,88,3,0,3,243,7,44,294,85,Yes
Dailey Elementary School,Beecher Community School District,"6236 Neff Rd, Mt Morris, MI 48458, United States",43.0969066,-83.7129395,394,6,88,3,0,4,456,5,50,511,90,Yes
Linden Elementary School,Linden Community Schools,"400 S Bridge St, Linden, MI 48451, United States",42.811321,-83.7838146,400,94,0,2,0,4,115,22,238,375,37,No
Linden High School,Linden Community Schools,"7201 Silver Lake Rd, Linden, MI 48451, United States",42.8085869,-83.8152716,917,95,1,3,0,1,206,53,695,954,27,No
Linden Middle School,Linden Community Schools,"15425 Lobdell Rd, Linden, MI 48451, United States",42.7984001,-83.8205793,700,91,2,3,0,4,158,30,444,632,30,No
Hyatt Elementary,Linden Community Schools,"325 Stan Eaton Dr, Linden, MI 48451, United States",42.8098757,-83.7863578,465,90,1,6,0,3,115,21,275,411,33,No
Carter Elementary School,Montrose Community Schools,"200 Park St, Montrose, MI 48457, United States",43.1793583,-83.8899598,493,90,2,4,0,4,304,30,184,518,64,No
Hill-McCloy High School,Montrose Community Schools,"301 Nanita Dr, Montrose, MI 48457, United States",43.181033,-83.8866248,386,92,3,2,1,2,147,29,208,384,46,No
Montrose Alternative Education Center,Montrose Community Schools,"300 Nanita Dr, Montrose, MI 48457, United States",43.1806758,-83.8864308,148,91,2,5,0,2,91,0,54,145,63,No
Columbiaville Elementary School,LakeVille Community School District,"8254 N Gale Rd, Otisville, MI 48463, United States",43.1280937,-83.5382308,282,90,1,5,0,4,126,20,87,233,63,No
LakeVille High School,LakeVille Community School District,"11107 Washburn Rd, Otisville, MI 48463, United States",43.1681901,-83.4622335,442,94,1,2,0,3,216,39,162,417,61,No
LakeVille Middle School,LakeVille Community School District,"12455 Wilson Rd, Otisville, MI 48463, United States",43.1666897,-83.4629203,314,92,0,5,0,3,152,21,102,275,63,No
Otter Lake Elementary School,LakeVille Community School District,"6313 Hart Lake Rd, Otter Lake, MI 48464, United States",43.2107759,-83.4498082,162,90,1,5,0,4,98,16,38,152,75,No
Genesee STEM Academy,Genesee STEM Academy,"5240 Calkins Rd, Flint, MI 48532, United States",43.017278,-83.7820601,270,6,93,1,0,0,304,5,20,329,94,Yes
Woodland Park Academy,Woodland Park Academy,"2083 E Grand Blanc Rd, Grand Blanc, MI 48439, United States",42.916965,-83.6678631,405,32,48,4,0,16,301,27,66,394,83,Yes
Grand Blanc Academy,Grand Blanc Academy,"5135 E Hill Rd, Grand Blanc, MI 48439, United States",42.9461385,-83.6079851,399,26,63,7,1,4,329,27,31,387,92,Yes
Northridge Academy,Northridge Academy,"4100 Coldwater Rd, Flint, MI 48504, United States",43.0912533,-83.7574511,343,0,99,0,0,0,238,8,2,248,99,Yes
International Academy of Flint (K-12),International Academy of Flint,"2820 Saginaw St, Flint, MI 48503, United States",42.9964149,-83.6786164,1061,7,82,2,0,9,882,20,128,1030,88,Yes
Linden Charter Academy,Linden Charter Academy,"3244 N Linden Rd, Flint, MI 48504, United States",43.0527101,-83.7708074,714,2,93,2,0,3,722,28,16,766,98,Yes
Burton Glen Charter Academy,Burton Glen Charter Academy,"4171 E Atherton Rd, Burton, MI 48519, United States",42.9928817,-83.6276626,701,20,70,3,0,7,497,17,24,538,96,Yes
Richfield Public School Academy,Richfield Public School Academy,"3807 Center Rd, Flint, MI 48506, United States",43.0490184,-83.6367763,431,26,52,17,0,6,381,15,20,416,95,Yes
Madison Academy - High School,Madison Academy,"3266 S Genesee Rd, Burton, MI 48519, United States",42.9824005,-83.6154657,200,22,73,3,0,3,133,0,35,168,79,Yes
Madison Academy Elementary/Middle School,Madison Academy,"6170 Torrey Rd, Flint, MI 48507, United States",42.9394085,-83.7338713,282,30,52,9,0,10,213,2,32,247,87,Yes
The New Standard Academy,The New Standard Academy,"2040 W Carpenter Rd, Flint, MI 48505, United States",43.0776059,-83.7162892,611,1,97,1,0,2,476,4,31,511,94,Yes
Greater Heights Academy,Greater Heights Academy,"3196 Pasadena Ave, Flint, MI 48504, United States",43.0466117,-83.7406463,300,3,83,4,0,10,261,9,10,280,96,Yes
"WAY Academy - Flint, Flint Campus",WAY Academy - Flint,"817 E Kearsley St, Flint, MI 48503, United States",43.0215683,-83.6826388,166,30,68,1,0,2,150,5,8,163,95,Yes
Eagle's Nest Academy,Eagle's Nest Academy,"5101 Cloverlawn Dr, Flint, MI 48504, United States",43.0600624,-83.7301864,147,1,95,2,0,3,223,5,16,244,93,Yes
Beaverton Junior/Senior High School,Beaverton Rural Schools,"3090 Crockett Rd, Beaverton, MI 48612, United States",43.873702,-84.488556,580,94,1,3,1,2,246,35,226,507,55,No
Beaverton Elementary School,Beaverton Rural Schools,"440 Ross St, Beaverton, MI 48612, United States",43.876907,-84.4874204,567,95,0,3,0,2,303,28,188,519,64,No
Gladwin Junior High School,Gladwin Community Schools,"401 N Bowery Ave, Gladwin, MI 48624, United States",43.983985,-84.491419,357,93,1,2,1,3,196,29,153,378,60,No
Gladwin Elementary School,Gladwin Community Schools,"600 W 1st St, Gladwin, MI 48624, United States",43.9886338,-84.4911819,368,95,0,1,0,3,186,25,124,335,63,No
Gladwin Intermediate School,Gladwin Community Schools,"780 W 1st St, Gladwin, MI 48624, United States",43.9880281,-84.4939403,367,94,0,4,1,2,207,27,151,385,61,No
Gladwin High School,Gladwin Community Schools,"1400 N Spring St, Gladwin, MI 48624, United States",43.9928417,-84.4940225,555,94,1,1,1,3,257,27,280,564,50,No
Gogebic-Ontonagon ISD Special Education,Gogebic-Ontonagon ISD,"202 Elm St, Bergland, MI 49910, United States",46.5919068,-89.5728562,28,100,0,0,0,0,46,0,2,48,96,No
A.D. Johnston Jr/Sr High School,Bessemer Area School District,"100 W Lead St, Bessemer, MI 49911, United States",46.4815893,-90.0533586,183,94,2,2,1,2,99,6,99,204,51,No
Washington School,Bessemer Area School District,"Bessemer Area School District, MI, USA",46.3816515,-89.9412383,209,92,1,2,0,4,127,6,81,214,62,No
Luther L. Wright K-12 School,Ironwood Area Schools of Gogebic County,"650 E Ayer St, Ironwood, MI 49938, United States",46.4585148,-90.1594073,750,95,1,1,0,3,399,50,297,746,60,No
Gogebic Co. Community Education,Ironwood Area Schools of Gogebic County,"761 E Ayer St, Ironwood, MI 49938, United States",46.4574799,-90.1539534,48,79,2,2,0,17,42,2,8,52,85,No
Wakefield-Marenisco School,Wakefield-Marenisco School District,"715 Putnam St, Wakefield, MI 49968, United States",46.4777778,-89.9366667,314,94,0,0,0,5,130,16,147,293,50,No
Watersmeet Township School,Watersmeet Township School District,"N4720 US-45, Watersmeet, MI 49969, United States",46.269521,-89.1774323,150,32,1,5,0,62,88,20,36,144,75,Yes
New Campus Center,Traverse Bay Area ISD,"1100 Silver Dr, Traverse City, MI 49684, United States",44.7516128,-85.6454259,56,86,4,7,4,0,50,7,8,65,88,No
TBA ISD Oak Park Special Education,Traverse Bay Area ISD,"301 S Garfield Ave, Traverse City, MI 49686, United States",44.762077,-85.5944287,52,92,0,4,0,4,38,4,54,96,44,No
TBA ISD Traverse Heights,Traverse Bay Area ISD,"1101 Red Dr, Traverse City, MI 49684, United States",44.7515406,-85.6457611,74,89,7,3,0,1,39,1,39,79,51,No
